{
  "Aeròdrom Militar": [
    {
      "name": "CUXACH",
      "location": "Aeròdrom Militar",
      "state": "Alta",
      "startDate": "10/07/2007",
      "address": "POLÍGON 4, PARCEL·LA 403, S/N. Aeròdrom Militar, POLLENÇA, Mallorca",
      "longitude": 3.0213905852208334,
      "latitude": 39.8866280189306
    },
    {
      "name": "LES OLIVERES",
      "location": "Aeròdrom Militar",
      "state": "Alta",
      "startDate": "23/08/2007",
      "address": "POLIGONO 6, PARCELA 396-397, S/N. 07460 Aeròdrom Militar, POLLENÇA, Mallorca",
      "longitude": 3.029617012029544,
      "latitude": 39.886762444104896
    }
  ],
  "Alaró": [
    {
      "name": "LA VILA",
      "location": "Alaró",
      "state": "Alta",
      "startDate": "10/05/2017",
      "address": "Plaça DE LA VILA, 4. 07340 ALARÓ, Mallorca",
      "longitude": 2.7888054794856925,
      "latitude": 39.7057607673728
    },
    {
      "name": "CASA MARIA",
      "location": "Alaró",
      "state": "Alta",
      "startDate": "25/04/2017",
      "address": "Carrer CAN BARBUT, 15. 07340 ALARÓ, Mallorca",
      "longitude": 2.7900965423252733,
      "latitude": 39.70454138781015
    },
    {
      "name": "CA´N SALAT",
      "location": "Alaró",
      "state": "Alta",
      "startDate": "22/06/2017",
      "address": "Carrer PETIT, 3. 07340 ALARÓ, Mallorca",
      "longitude": 2.7895225185057053,
      "latitude": 39.705840208051114
    },
    {
      "name": "CA NA MANDINGA",
      "location": "Alaró",
      "state": "Alta",
      "startDate": "28/06/2017",
      "address": "Carrer DE LES SABATERES, 38. 07340 ALARÓ, Mallorca",
      "longitude": 2.79461188101198,
      "latitude": 39.70534422444805
    },
    {
      "name": "SANT ROC",
      "location": "Alaró",
      "state": "Alta",
      "startDate": "18/07/2017",
      "address": "Carrer SANT ROC, 37. 07340 ALARÓ, Mallorca",
      "longitude": 2.7888796206410453,
      "latitude": 39.70743550647436
    },
    {
      "name": "CASA BARBARAMA",
      "location": "Alaró",
      "state": "Alta",
      "startDate": "31/07/2017",
      "address": "Camí CAN MANYOLES, 61. 07340 ALARÓ, Mallorca",
      "longitude": 2.7944887732558454,
      "latitude": 39.70803976278419
    },
    {
      "name": "CASA LLOBERA",
      "location": "Alaró",
      "state": "Alta",
      "startDate": "31/07/2017",
      "address": "Carrer MIQUEL COSTA I LLOBERA, 19. 07340 ALARÓ, Mallorca",
      "longitude": 2.7932611990268943,
      "latitude": 39.70641669351489
    },
    {
      "name": "CAN BLAU",
      "location": "Alaró",
      "state": "Alta",
      "startDate": "17/12/2018",
      "address": "Carrer CA NA FARA, 25. 07340 ALARÓ, Mallorca",
      "longitude": 2.784672573529344,
      "latitude": 39.7087355540006
    },
    {
      "name": "SES PLANETES",
      "location": "Alaró",
      "state": "Alta",
      "startDate": "03/10/2008",
      "address": "POLÍGON 2, PARCEL·LA 15 ALARÓ (Mallorca), Illes Balears",
      "longitude": 2.8130949524722926,
      "latitude": 39.721497619331814
    },
    {
      "name": "CAN ROCHET",
      "location": "Alaró",
      "state": "Alta",
      "startDate": "30/11/2018",
      "address": "Carrer CAMP ROIG, 42. 07340 ALARÓ, Mallorca",
      "longitude": 2.7915609085164848,
      "latitude": 39.70640045006991
    },
    {
      "name": "CASA KARIBÚ",
      "location": "Alaró",
      "state": "Alta",
      "startDate": "28/06/2017",
      "address": "Carrer TORRENT DE S´ESTRET, 2. 07340 ALARÓ, Mallorca",
      "longitude": 2.783881077366915,
      "latitude": 39.708063453615104
    },
    {
      "name": "CAN SERP",
      "location": "Alaró",
      "state": "Alta",
      "startDate": "29/04/2021",
      "address": "Carrer D´ENMIG, 34. 07340 ALARÓ, Mallorca",
      "longitude": 2.7868629147000834,
      "latitude": 39.70619023511565
    },
    {
      "name": "C´AN BLANCA",
      "location": "Alaró",
      "state": "Alta",
      "startDate": "25/03/2021",
      "address": "Carrer GERMÀ JULIO DE LA SALLE, 19. 07340 ALARÓ, Mallorca",
      "longitude": 2.7874401554137527,
      "latitude": 39.70533946335013
    },
    {
      "name": "SA SORT DE BAIX",
      "location": "Alaró",
      "state": "Alta",
      "startDate": "22/04/2009",
      "address": "Carretera ALARÓ-ORIENT, KM. 16,8 ALARÓ, S/N. 07340 ALARÓ, Mallorca",
      "longitude": 2.8024065682989985,
      "latitude": 39.723531788506435
    },
    {
      "name": "CAN ALARO",
      "location": "Alaró",
      "state": "Alta",
      "startDate": "07/09/2009",
      "address": "Camí CAMPLLARC, S/N. 07340 ALARÓ, Mallorca",
      "longitude": 2.8024065682989985,
      "latitude": 39.723531788506435
    },
    {
      "name": "SON SEGUI",
      "location": "Alaró",
      "state": "Alta",
      "startDate": "10/07/2007",
      "address": "Camí SON POL. POLIGON 2, PARCEL·LA 80, S/N. 07340 ALARÓ, Mallorca",
      "longitude": 2.796523659304524,
      "latitude": 39.70820371773841
    },
    {
      "name": "CASA SON ANTELM",
      "location": "Alaró",
      "state": "Alta",
      "startDate": "20/01/2015",
      "address": "Carrer SON ANTELM, 14. 07340 ALARÓ, Mallorca",
      "longitude": 2.7888819695389673,
      "latitude": 39.70458032429433
    },
    {
      "name": "BONA VISTA SON FIOL",
      "location": "Alaró",
      "state": "Alta",
      "startDate": "09/07/2007",
      "address": "POLIGON 4 PARCEL·LA 96, S/N. 07340 ALARÓ, Mallorca",
      "longitude": 2.782005069995397,
      "latitude": 39.689343580971
    },
    {
      "name": "FINCA CAN MARIERO",
      "location": "Alaró",
      "state": "Alta",
      "startDate": "19/11/2014",
      "address": "Camí CAMI VELL D´ORIENT, POLIGON 3 PARCEL.LA 114, S/N. 07340 ALARÓ, Mallorca",
      "longitude": 2.800891648297293,
      "latitude": 39.698775841485705
    },
    {
      "name": "RESIDENCIA BARANDA",
      "location": "Alaró",
      "state": "Alta",
      "startDate": "27/05/2015",
      "address": "Polígon 4 PARCEL·LA 360 I 658. 07340 ALARÓ, Mallorca",
      "longitude": 2.8024065682989985,
      "latitude": 39.723531788506435
    },
    {
      "name": "ES FIGUERAL SON RIBAS",
      "location": "Alaró",
      "state": "Alta",
      "startDate": "10/07/2007",
      "address": "POLIGON 4 PARCEL·LA 491, 07340 ALARÓ (Mallorca), Illes Balears",
      "longitude": 2.795022016670962,
      "latitude": 39.696706422918815
    },
    {
      "name": "ALARÓ CENTRO",
      "location": "Alaró",
      "state": "Alta",
      "startDate": "13/02/2015",
      "address": "Carrer SON AMENGUAL, 10. 07340 ALARÓ, Mallorca",
      "longitude": 2.7909086277367012,
      "latitude": 39.704321899998945
    },
    {
      "name": "SON FUSTER D´ABAIX",
      "location": "Alaró",
      "state": "Alta",
      "startDate": "18/08/2015",
      "address": "Polígon 2, PARC 142 (SON FUSTER D´ABAIX). 07340 ALARÓ, Mallorca",
      "longitude": 2.8093484737094405,
      "latitude": 39.71909949191494
    },
    {
      "name": "LAS ARTIGAS",
      "location": "Alaró",
      "state": "Alta",
      "startDate": "09/07/2007",
      "address": "Polígon 1, PARCEL·LA 27,28,30. 07340 ALARÓ, Mallorca",
      "longitude": 2.781638107777821,
      "latitude": 39.71382708995995
    },
    {
      "name": "SON FIOL",
      "location": "Alaró",
      "state": "Alta",
      "startDate": "10/02/2016",
      "address": "Carretera SANTA MARIA-ALARO KM 3,5, S/N. 07340 ALARÓ, Mallorca",
      "longitude": 2.8024065682989985,
      "latitude": 39.723531788506435
    },
    {
      "name": "LOVELY COTTAGE",
      "location": "Alaró",
      "state": "Alta",
      "startDate": "25/11/2016",
      "address": "Carrer POUADOR, 47. 07340 ALARÓ, Mallorca",
      "longitude": 2.7837085941980138,
      "latitude": 39.71027672326285
    },
    {
      "name": "CAS CONVIDATS",
      "location": "Alaró",
      "state": "Alta",
      "startDate": "07/12/2016",
      "address": "Carrer SON AMENGUAL, 26. 07340 ALARÓ, Mallorca",
      "longitude": 2.7914299078039937,
      "latitude": 39.7038209583259
    },
    {
      "name": "SES ROTES",
      "location": "Alaró",
      "state": "Alta",
      "startDate": "05/04/2017",
      "address": "Carrer PUJOL, 66. 07340 ALARÓ, Mallorca",
      "longitude": 2.7882293203397284,
      "latitude": 39.7085355041058
    },
    {
      "name": "ALARO",
      "location": "Alaró",
      "state": "Alta",
      "startDate": "29/07/2015",
      "address": "Carrer DE LES SABATERES, 73. 07340 ALARÓ, Mallorca",
      "longitude": 2.7965309886605496,
      "latitude": 39.70658977256943
    },
    {
      "name": "SON RIBES -MM",
      "location": "Alaró",
      "state": "Alta",
      "startDate": "12/07/2007",
      "address": "POLÍGON 4, PARCEL·LA 468 I 607, 07340 ALARÓ (Mallorca), Illes Balears",
      "longitude": 2.794263962245523,
      "latitude": 39.695381474279365
    },
    {
      "name": "SOLER",
      "location": "Alaró",
      "state": "Alta",
      "startDate": "03/03/2016",
      "address": "Carrer PUJOL, 55. 07340 ALARÓ, Mallorca",
      "longitude": 2.787905705712178,
      "latitude": 39.70851253287584
    },
    {
      "name": "CAS MESTRE BO",
      "location": "Alaró",
      "state": "Alta",
      "startDate": "03/06/2016",
      "address": "Plaça CLASTRA DE CAN TIA ROIG, 1. 07340 ALARÓ, Mallorca",
      "longitude": 2.783109363250469,
      "latitude": 39.706638899317916
    },
    {
      "name": "CA NA MANDOLA",
      "location": "Alaró",
      "state": "Alta",
      "startDate": "12/07/2016",
      "address": "Carrer CAN CLADERA, 23. 07340 ALARÓ, Mallorca",
      "longitude": 2.7900772433840677,
      "latitude": 39.70356024181552
    },
    {
      "name": "CAN CABRIT",
      "location": "Alaró",
      "state": "Alta",
      "startDate": "25/07/2016",
      "address": "Carrer CA NA FARA, 11. 07340 ALARÓ, Mallorca",
      "longitude": 2.7846578016225565,
      "latitude": 39.70829828192977
    },
    {
      "name": "SON BORRÁS",
      "location": "Alaró",
      "state": "Alta",
      "startDate": "21/08/2007",
      "address": "Polígon 1 PARCEL·LES 327 I 328. 07340 ALARÓ, Mallorca",
      "longitude": 2.7783090846015437,
      "latitude": 39.70572642993753
    },
    {
      "name": "CAN MAYOL",
      "location": "Alaró",
      "state": "Alta",
      "startDate": "28/12/2016",
      "address": "Carrer SON AMENGUAL, 22. 07340 ALARÓ, Mallorca",
      "longitude": 2.791324392500207,
      "latitude": 39.70391296526098
    },
    {
      "name": "CA´N DOMINGO D´ALARO",
      "location": "Alaró",
      "state": "Alta",
      "startDate": "23/08/2007",
      "address": "POLIGON 3, PARCELA 304- SUB-PARCEL·LA 2, S/N. 07340 ALARÓ, Mallorca",
      "longitude": 2.806502390652746,
      "latitude": 39.693096604487124
    },
    {
      "name": "SA ROTA",
      "location": "Alaró",
      "state": "Alta",
      "startDate": "19/12/2016",
      "address": "Carrer POUADOR, 16. 07340 ALARÓ, Mallorca",
      "longitude": 2.785063158223979,
      "latitude": 39.70921015167405
    },
    {
      "name": "CASA TRAMUNTANA",
      "location": "Alaró",
      "state": "Alta",
      "startDate": "30/12/2016",
      "address": "Carrer PUJOL, 35. 07340 ALARÓ, Mallorca",
      "longitude": 2.786911506132154,
      "latitude": 39.708307111644274
    },
    {
      "name": "VILLA ISABEL",
      "location": "Alaró",
      "state": "Alta",
      "startDate": "30/03/2017",
      "address": "Carrer PUJOL, 77 pis BJ. 07340 ALARÓ, Mallorca",
      "longitude": 2.7888746507274895,
      "latitude": 39.708814642677964
    },
    {
      "name": "PETIT SON FIOL",
      "location": "Alaró",
      "state": "Alta",
      "startDate": "10/04/2012",
      "address": "Polígon 4, PARCEL·LA 717, SON FIOL. 07340 ALARÓ, Mallorca",
      "longitude": 2.782665752815429,
      "latitude": 39.678665561509575
    },
    {
      "name": "ES MOLI",
      "location": "Alaró",
      "state": "Alta",
      "startDate": "18/05/2012",
      "address": "Camí VELL D´ORIENT. POLÍGON 3, PARCEL·LA 146, S/N. ALARÓ, Mallorca",
      "longitude": 2.8043540566160017,
      "latitude": 39.701646719309636
    }
  ],
  "Alcanada": [
    {
      "name": "RONDA",
      "location": "Alcanada",
      "state": "Alta",
      "startDate": "05/02/2019",
      "address": "Carrer OLIVERES, 8 lletra A. 07400 Alcanada, ALCÚDIA, Mallorca",
      "longitude": 3.1594481867333526,
      "latitude": 39.839371473421
    },
    {
      "name": "SA CALETA DES MOIXOS",
      "location": "Alcanada",
      "state": "Alta",
      "startDate": "13/01/2021",
      "address": "Carrer CRANC, 24 pis Baixos. 07400 Alcanada, ALCÚDIA, Mallorca",
      "longitude": 3.15017666560653,
      "latitude": 39.83613817493707
    },
    {
      "name": "DARSENA",
      "location": "Alcanada",
      "state": "Alta",
      "startDate": "02/05/2023",
      "address": "Carrer DE GABRIEL ROCA, 9 escala 1 pis 1 porta A. 07400 Alcanada, ALCÚDIA, Mallorca",
      "longitude": 3.138151973171206,
      "latitude": 39.83924381405729
    },
    {
      "name": "XILVAR",
      "location": "Alcanada",
      "state": "Alta",
      "startDate": "13/07/2017",
      "address": "Carrer ILLOT, 3 lletra A. 07400 Alcanada, ALCÚDIA, Mallorca",
      "longitude": 3.1598436794712748,
      "latitude": 39.83850907579008
    },
    {
      "name": "BONA MAR",
      "location": "Alcanada",
      "state": "Alta",
      "startDate": "11/07/2017",
      "address": "Carrer OLIVERES, 14. 07410 Alcanada, ALCÚDIA, Mallorca",
      "longitude": 3.1594481867333526,
      "latitude": 39.839371473421
    },
    {
      "name": "CAN LLOMPART",
      "location": "Alcanada",
      "state": "Alta",
      "startDate": "13/07/2017",
      "address": "Camí ALCANADA, 73. 07400 Alcanada, ALCÚDIA, Mallorca",
      "longitude": 3.158215087217975,
      "latitude": 39.83794335526183
    },
    {
      "name": "CA´N JOAN D´ALCANADA",
      "location": "Alcanada",
      "state": "Alta",
      "startDate": "17/07/2017",
      "address": "Carrer ILLOT, 1 lletra A. 07400 Alcanada, ALCÚDIA, Mallorca",
      "longitude": 3.1597389473900073,
      "latitude": 39.83845797539037
    },
    {
      "name": "BONAIRE BEACH HOUSE",
      "location": "Alcanada",
      "state": "Alta",
      "startDate": "19/11/2008",
      "address": "Carrer BLAT, 10. 07400 Alcanada, ALCÚDIA, Mallorca",
      "longitude": 3.1485751621511904,
      "latitude": 39.863975969841924
    },
    {
      "name": "ALTAVISTA",
      "location": "Alcanada",
      "state": "Alta",
      "startDate": "06/06/2023",
      "address": "Carrer DE LA TALAIA, 5 pis BJS. 07400 Alcanada, ALCÚDIA, Mallorca",
      "longitude": 3.157185257696722,
      "latitude": 39.83938007291101
    },
    {
      "name": "VILLA ALCANADA LIGHTHOUSE",
      "location": "Alcanada",
      "state": "Alta",
      "startDate": "23/07/2010",
      "address": "Carrer ILLOT DEL FARO, 24. 07400 Alcanada, ALCÚDIA, Mallorca",
      "longitude": 3.1117279303301997,
      "latitude": 39.84238298366078
    },
    {
      "name": "OLIVERES 12",
      "location": "Alcanada",
      "state": "Alta",
      "startDate": "07/08/2013",
      "address": "Carrer DE LES OLIVERES, 12 lletra B. Alcanada, ALCÚDIA, Mallorca",
      "longitude": 3.1429277047569197,
      "latitude": 39.838808457671554
    },
    {
      "name": "FAR D´ALCANADA",
      "location": "Alcanada",
      "state": "Alta",
      "startDate": "27/07/2016",
      "address": "Camí ALCANADA, 48. 07400 Alcanada, ALCÚDIA, Mallorca",
      "longitude": 3.1522265807177265,
      "latitude": 39.83651661504665
    },
    {
      "name": "CA´N JOAN",
      "location": "Alcanada",
      "state": "Alta",
      "startDate": "24/04/2014",
      "address": "Carrer S´ILLOT, PARCELA 133, 5 lletra A. 07400 Alcanada, ALCÚDIA, Mallorca",
      "longitude": 3.1595777738619906,
      "latitude": 39.83832086693595
    },
    {
      "name": "VILLA SAMMY",
      "location": "Alcanada",
      "state": "Alta",
      "startDate": "07/10/2014",
      "address": "Carrer MIRADOR, 18. 07400 Alcanada, ALCÚDIA, Mallorca",
      "longitude": 3.1521696236610617,
      "latitude": 39.837776896407085
    },
    {
      "name": "CAN BESSO",
      "location": "Alcanada",
      "state": "Alta",
      "startDate": "24/06/2014",
      "address": "Carrer OLIVERES, 8 lletra B. 07400 Alcanada, ALCÚDIA, Mallorca",
      "longitude": 3.1429277047569197,
      "latitude": 39.838808457671554
    },
    {
      "name": "ES POU",
      "location": "Alcanada",
      "state": "Alta",
      "startDate": "10/07/2007",
      "address": "POLIGON 5 PARCEL·LA 176, S/N. 07400 Alcanada, ALCÚDIA, Mallorca",
      "longitude": 3.089093672292913,
      "latitude": 39.848408476758934
    },
    {
      "name": "VILLA ARATA",
      "location": "Alcanada",
      "state": "Alta",
      "startDate": "22/07/2014",
      "address": "Carrer SES OLIVERES, 3. 07400 Alcanada, ALCÚDIA, Mallorca",
      "longitude": 3.1429277047569197,
      "latitude": 39.838808457671554
    },
    {
      "name": "VANMES",
      "location": "Alcanada",
      "state": "Alta",
      "startDate": "22/07/2014",
      "address": "Carrer CAP DES PINAR,, 7 lletra A. 07400 Alcanada, ALCÚDIA, Mallorca",
      "longitude": 3.1615065270133025,
      "latitude": 39.83989906757279
    },
    {
      "name": "VILLA ALCANADA",
      "location": "Alcanada",
      "state": "Alta",
      "startDate": "23/02/2015",
      "address": "Carrer PUIG, 5. 07410 Alcanada, ALCÚDIA, Mallorca",
      "longitude": 3.151483247319794,
      "latitude": 39.83699227977518
    },
    {
      "name": "CASA MARGARITA",
      "location": "Alcanada",
      "state": "Alta",
      "startDate": "18/08/2015",
      "address": "Carrer DE LES OLIVERES, 4 lletra A. 07400 Alcanada, ALCÚDIA, Mallorca",
      "longitude": 3.1582097965681672,
      "latitude": 39.839774052834706
    },
    {
      "name": "CAN NICOLAS",
      "location": "Alcanada",
      "state": "Alta",
      "startDate": "18/08/2015",
      "address": "Carrer L´HEURA, 22. 07400 Alcanada, ALCÚDIA, Mallorca",
      "longitude": 3.1558557663359843,
      "latitude": 39.858961753982705
    },
    {
      "name": "CA´N JOLÀ",
      "location": "Alcanada",
      "state": "Alta",
      "startDate": "04/01/2016",
      "address": "Carrer JOSEP VICENS FOIX, (ES BARCARÉS), 4 lletra A. 07400 Alcanada, ALCÚDIA, Mallorca",
      "longitude": 3.1183403807184216,
      "latitude": 39.85925931385323
    },
    {
      "name": "CASA DE LOS LEONES",
      "location": "Alcanada",
      "state": "Alta",
      "startDate": "12/04/2016",
      "address": "Camí DE MANRESA, 33. 07400 Alcanada, ALCÚDIA, Mallorca",
      "longitude": 3.136114146114752,
      "latitude": 39.86388496454444
    },
    {
      "name": "EL CAMP DE SES ROTES",
      "location": "Alcanada",
      "state": "Alta",
      "startDate": "29/02/2016",
      "address": "Plaça POLIGONO 4 PARCELA 361, S/N. 07400 Alcanada, ALCÚDIA, Mallorca",
      "longitude": 3.1042721288630393,
      "latitude": 39.83464793637502
    },
    {
      "name": "ELS OSCOLS",
      "location": "Alcanada",
      "state": "Alta",
      "startDate": "10/07/2007",
      "address": "Carretera PALMA - ALCÚDIA KM. 47, POLÍGON 7, PARCEL.LA 40, S/N. 07400 Alcanada, ALCÚDIA, Mallorca",
      "longitude": 3.078231025312557,
      "latitude": 39.837700843056616
    },
    {
      "name": "AUCANADA GOLF",
      "location": "Alcanada",
      "state": "Alta",
      "startDate": "06/03/2017",
      "address": "Carrer CAP DES PINAR, 3. 07400 Alcanada, ALCÚDIA, Mallorca",
      "longitude": 3.1602165474859967,
      "latitude": 39.83947161300346
    },
    {
      "name": "VILLA ILLOT",
      "location": "Alcanada",
      "state": "Alta",
      "startDate": "02/01/2015",
      "address": "Carrer ILLOT, 10 lletra A. 07400 Alcanada, ALCÚDIA, Mallorca",
      "longitude": 3.1604724421983934,
      "latitude": 39.83872377679541
    },
    {
      "name": "VILLA VERD",
      "location": "Alcanada",
      "state": "Alta",
      "startDate": "18/08/2015",
      "address": "Avinguda CAMP DE MAR, 15. 07400 Alcanada, ALCÚDIA, Mallorca",
      "longitude": 3.1198453164454203,
      "latitude": 39.86142738199417
    },
    {
      "name": "CAMP DE MAR",
      "location": "Alcanada",
      "state": "Alta",
      "startDate": "23/12/2016",
      "address": "Carrer ANCORES, 12 lletra A. 07400 Alcanada, ALCÚDIA, Mallorca",
      "longitude": 3.1210767459131468,
      "latitude": 39.861259487290226
    },
    {
      "name": "CAS SIULET",
      "location": "Alcanada",
      "state": "Alta",
      "startDate": "23/12/2016",
      "address": "Avinguda CAMP DE MAR, 17. 07400 Alcanada, ALCÚDIA, Mallorca",
      "longitude": 3.119638549285725,
      "latitude": 39.8614602711544
    },
    {
      "name": "VILLA MARIA",
      "location": "Alcanada",
      "state": "Alta",
      "startDate": "30/12/2016",
      "address": "Camí ALCANADA, 37. 07400 Alcanada, ALCÚDIA, Mallorca",
      "longitude": 3.152561656370791,
      "latitude": 39.83663793765029
    },
    {
      "name": "PALANGRE",
      "location": "Alcanada",
      "state": "Alta",
      "startDate": "22/02/2017",
      "address": "Avinguda PALANGRES, 14. 07400 Alcanada, ALCÚDIA, Mallorca",
      "longitude": 3.113668535501619,
      "latitude": 39.85947519708862
    },
    {
      "name": "SERRA FERRER 1",
      "location": "Alcanada",
      "state": "Alta",
      "startDate": "16/03/1990",
      "address": "Carrer S´ILLOT, S/N SOLAR, 129 lletra A. 07410 Alcanada, ALCÚDIA, Mallorca",
      "longitude": 3.1604804092776857,
      "latitude": 39.83877268564973
    },
    {
      "name": "SERRA FERRER 2",
      "location": "Alcanada",
      "state": "Alta",
      "startDate": "16/03/1990",
      "address": "Carrer S´ILLOT, S/N SOLAR, 129 lletra B. 07410 Alcanada, ALCÚDIA, Mallorca",
      "longitude": 3.1604804092776857,
      "latitude": 39.83877268564973
    },
    {
      "name": "SOCIAS SERRA 1",
      "location": "Alcanada",
      "state": "Alta",
      "startDate": "23/03/1990",
      "address": "S´ILLOT, S/N SOLAR, 130 Lletra A, 07410, Alcanada (ALCÚDIA) (Mallorca), Illes Balears",
      "longitude": 3.1604804092776857,
      "latitude": 39.83877268564973
    },
    {
      "name": "SOCIAS SERRA 2",
      "location": "Alcanada",
      "state": "Alta",
      "startDate": "23/03/1990",
      "address": "S´ILLOT, S/N SOLAR, 130 Lletra B, 07410, Alcanada (ALCÚDIA) (Mallorca), Illes Balears",
      "longitude": 3.1604804092776857,
      "latitude": 39.83877268564973
    },
    {
      "name": "AUCANADA 1",
      "location": "Alcanada",
      "state": "Alta",
      "startDate": "15/05/1990",
      "address": "S´ILLOT, S/N SOLAR, 131 Lletra A, 07410, Alcanada (ALCÚDIA) (Mallorca), Illes Balears",
      "longitude": 3.1604804092776857,
      "latitude": 39.83877268564973
    },
    {
      "name": "AUCANADA 2",
      "location": "Alcanada",
      "state": "Alta",
      "startDate": "15/05/1990",
      "address": "Carrer S´ILLOT, S/N SOLAR, 131 lletra B. 07410 Alcanada, ALCÚDIA, Mallorca",
      "longitude": 3.1604804092776857,
      "latitude": 39.83877268564973
    },
    {
      "name": "SERRA FERRER 3",
      "location": "Alcanada",
      "state": "Alta",
      "startDate": "16/03/1990",
      "address": "S´ILLOT, S/N SOLAR, 129 Lletra A, 07410, Alcanada (ALCÚDIA) (Mallorca), Illes Balears",
      "longitude": 3.1604804092776857,
      "latitude": 39.83877268564973
    },
    {
      "name": "SERRA FERRER 4",
      "location": "Alcanada",
      "state": "Alta",
      "startDate": "16/03/1990",
      "address": "Carrer S´ILLOT, S/N SOLAR 129 B 1º, S/N. 07410 Alcanada, ALCÚDIA, Mallorca",
      "longitude": 3.1604804092776857,
      "latitude": 39.83877268564973
    },
    {
      "name": "SOCIAS SERRA 3",
      "location": "Alcanada",
      "state": "Alta",
      "startDate": "23/03/1990",
      "address": "S´ILLOT, S/N SOLAR, 130 Lletra A, 1, 07410, Alcanada (ALCÚDIA) (Mallorca), Illes Balears",
      "longitude": 3.1604804092776857,
      "latitude": 39.83877268564973
    },
    {
      "name": "SOCIAS SERRA 4",
      "location": "Alcanada",
      "state": "Alta",
      "startDate": "23/03/1990",
      "address": "S´ILLOT, S/N SOLAR, 130 Lletra B, 1, 07410, Alcanada (ALCÚDIA) (Mallorca), Illes Balears",
      "longitude": 3.1604804092776857,
      "latitude": 39.83877268564973
    },
    {
      "name": "AUCANADA 3",
      "location": "Alcanada",
      "state": "Alta",
      "startDate": "15/05/1990",
      "address": "S´ILLOT, S/N SOLAR, 131 Lletra A, 1, 07410, Alcanada (ALCÚDIA) (Mallorca), Illes Balears",
      "longitude": 3.1604804092776857,
      "latitude": 39.83877268564973
    },
    {
      "name": "AUCANADA 4",
      "location": "Alcanada",
      "state": "Alta",
      "startDate": "15/05/1990",
      "address": "Carrer S´ILLOT, S/N SOLAR 131 B 1º, S/N. 07410 Alcanada, ALCÚDIA, Mallorca",
      "longitude": 3.1604804092776857,
      "latitude": 39.83877268564973
    },
    {
      "name": "ROTJA DE BAIX/CAN ROTJA",
      "location": "Alcanada",
      "state": "Alta",
      "startDate": "21/02/2012",
      "address": "Carrer COLL BAIX, POLÍGON 3, PARCEL·LA 329, S/N. 07410 Alcanada, ALCÚDIA, Mallorca",
      "longitude": 3.1770443553916263,
      "latitude": 39.845098397950096
    }
  ],
  "Alcúdia": [
    {
      "name": "CA NA CATI",
      "location": "Alcúdia",
      "state": "Alta",
      "startDate": "14/09/2018",
      "address": "Carrer GAMBANER, 3 lletra A. 07400 ALCÚDIA, Mallorca",
      "longitude": 3.112435804536127,
      "latitude": 39.85932716193833
    },
    {
      "name": "MARINA",
      "location": "Alcúdia",
      "state": "Alta",
      "startDate": "27/09/2018",
      "address": "CANET DE ROSSELLÓ, 1 pis 1. -, -",
      "longitude": 3.105213446060397,
      "latitude": 39.85732542902146
    },
    {
      "name": "SOL I MAR",
      "location": "Alcúdia",
      "state": "Alta",
      "startDate": "21/09/2018",
      "address": "VORAMAR, 7 pis PB. -, -",
      "longitude": 3.1116167536240145,
      "latitude": 39.8603416520692
    },
    {
      "name": "VIDA SANA",
      "location": "Alcúdia",
      "state": "Alta",
      "startDate": "27/08/2018",
      "address": "Camí ALCANADA, 74 escala D pis PB porta 2. 07400 ALCÚDIA, Mallorca",
      "longitude": 3.1549751252365263,
      "latitude": 39.837339944732754
    },
    {
      "name": "XARUS 1",
      "location": "Alcúdia",
      "state": "Alta",
      "startDate": "04/10/2018",
      "address": "Carrer PERE QUART, 1 lletra A pis PB. 07400 ALCÚDIA, Mallorca",
      "longitude": 3.1200410051782668,
      "latitude": 39.86079434406897
    },
    {
      "name": "XARUS 2",
      "location": "Alcúdia",
      "state": "Alta",
      "startDate": "04/10/2018",
      "address": "Carrer PERE QUART, 1 pis 1. 07400 ALCÚDIA, Mallorca",
      "longitude": 3.1200410051782668,
      "latitude": 39.86079434406897
    },
    {
      "name": "CARABELA APTO 93",
      "location": "Alcúdia",
      "state": "Alta",
      "startDate": "09/10/2018",
      "address": "D´ARTÀ, 7 escala 9 pis 2 porta 93. -, -",
      "longitude": 3.130299271224183,
      "latitude": 39.8416214624324
    },
    {
      "name": "CARABELA 51",
      "location": "Alcúdia",
      "state": "Alta",
      "startDate": "16/10/2018",
      "address": "Carretera D´ARTÀ, 7 escala 4 pis 1 porta 51. 07400 ALCÚDIA, Mallorca",
      "longitude": 3.130299271224183,
      "latitude": 39.8416214624324
    },
    {
      "name": "SOL I MAR II",
      "location": "Alcúdia",
      "state": "Alta",
      "startDate": "05/11/2018",
      "address": "VORAMAR, 7 lletra A pis 1. -, -",
      "longitude": 3.1116167536240145,
      "latitude": 39.8603416520692
    },
    {
      "name": "APT. SEA",
      "location": "Alcúdia",
      "state": "Alta",
      "startDate": "12/11/2018",
      "address": "D´ARTÀ, 7 escala C pis 3 porta 36. -, -",
      "longitude": 3.130299271224183,
      "latitude": 39.8416214624324
    },
    {
      "name": "LA ENCINA",
      "location": "Alcúdia",
      "state": "Alta",
      "startDate": "09/11/2018",
      "address": "Carretera D´ARTÀ, 116 escala 1 pis 2 porta A. 07400 ALCÚDIA, Mallorca",
      "longitude": 3.1149496138590838,
      "latitude": 39.8239488670819
    },
    {
      "name": "SA MARINA",
      "location": "Alcúdia",
      "state": "Alta",
      "startDate": "15/11/2018",
      "address": "Carrer CANET DE ROSSELLÓ, 1 escala E pis PB porta 1. 07400 ALCÚDIA, Mallorca",
      "longitude": 3.105213446060397,
      "latitude": 39.85732542902146
    },
    {
      "name": "AIGUABLAVA BEACH",
      "location": "Alcúdia",
      "state": "Alta",
      "startDate": "26/10/2018",
      "address": "D´ARTÀ, 44 pis 1 porta A. -, -",
      "longitude": 3.11967185357178,
      "latitude": 39.8378863585116
    },
    {
      "name": "SA MARINA",
      "location": "Alcúdia",
      "state": "Alta",
      "startDate": "28/11/2018",
      "address": "Carrer PORT POLLENÇA, 70 lletra A pis PB. 07400 ALCÚDIA, Mallorca",
      "longitude": 3.106827193417919,
      "latitude": 39.856519302307
    },
    {
      "name": "CITTADINI 39",
      "location": "Alcúdia",
      "state": "Alta",
      "startDate": "27/11/2018",
      "address": "D´ARTÀ, 7 escala B bloc CITTADINI pis 3 porta 39. -, -",
      "longitude": 3.130299271224183,
      "latitude": 39.8416214624324
    },
    {
      "name": "CAMI ALCANADA",
      "location": "Alcúdia",
      "state": "Alta",
      "startDate": "05/12/2018",
      "address": "Camí ALCANADA, 49 escala 1 pis Baixos porta 1. 07400 ALCÚDIA, Mallorca",
      "longitude": 3.1544849525408782,
      "latitude": 39.83710660655335
    },
    {
      "name": "VIDA SANA",
      "location": "Alcúdia",
      "state": "Alta",
      "startDate": "18/12/2018",
      "address": "Camí ALCANADA, 76 escala 1 pis 1 porta 7. 07400 ALCÚDIA, Mallorca",
      "longitude": 3.155252635633912,
      "latitude": 39.837564337515296
    },
    {
      "name": "BLUE VIEW",
      "location": "Alcúdia",
      "state": "Alta",
      "startDate": "22/01/2019",
      "address": "Carretera D´ARTÀ, 11 lletra D pis 2 porta C. 07400 ALCÚDIA, Mallorca",
      "longitude": 3.1286352175602476,
      "latitude": 39.84128190629576
    },
    {
      "name": "VIVIENDA JUNTO AL MAR",
      "location": "Alcúdia",
      "state": "Alta",
      "startDate": "21/12/2018",
      "address": "D´ARTÀ, 7 escala D pis 3A porta 28. -, -",
      "longitude": 3.130299271224183,
      "latitude": 39.8416214624324
    },
    {
      "name": "THE SHELL II",
      "location": "Alcúdia",
      "state": "Alta",
      "startDate": "22/02/2019",
      "address": "D´ARTÀ, 88 escala 1 pis 4a porta 16. -, -",
      "longitude": 3.115822528900013,
      "latitude": 39.82853081902836
    },
    {
      "name": "AIGUAMARINA BEACH",
      "location": "Alcúdia",
      "state": "Alta",
      "startDate": "26/10/2018",
      "address": "Carretera D´ARTÀ, 58 pis BXS porta C. 07400 ALCÚDIA, Mallorca",
      "longitude": 3.115387133050766,
      "latitude": 39.826006137944646
    },
    {
      "name": "VILLA SYRAH",
      "location": "Alcúdia",
      "state": "Alta",
      "startDate": "15/03/2019",
      "address": "Carrer NOGUER, 4 bloc 3 pis PB porta 12. 07400 ALCÚDIA, Mallorca",
      "longitude": 3.1154004625786316,
      "latitude": 39.8297131196811
    },
    {
      "name": "DIONIS",
      "location": "Alcúdia",
      "state": "Alta",
      "startDate": "31/05/2019",
      "address": "Carretera D´ARTÀ, 1 escala 1 pis 2 porta 1. 07400 ALCÚDIA, Mallorca",
      "longitude": 3.1236844727303112,
      "latitude": 39.8402234277725
    },
    {
      "name": "CA NA KIKA",
      "location": "Alcúdia",
      "state": "Alta",
      "startDate": "24/01/2019",
      "address": "Carretera D´ARTÀ, 120 pis 1 porta A. 07400 ALCÚDIA, Mallorca",
      "longitude": 3.1148667829445755,
      "latitude": 39.823501507018804
    },
    {
      "name": "XARA TORRES",
      "location": "Alcúdia",
      "state": "Alta",
      "startDate": "05/12/2018",
      "address": "D´ARTÀ, 1 escala 1 pis 2 porta C. -, -",
      "longitude": 3.1236844727303112,
      "latitude": 39.8402234277725
    },
    {
      "name": "CARABELA BEACH 2",
      "location": "Alcúdia",
      "state": "Alta",
      "startDate": "14/12/2018",
      "address": "Carretera D´ARTÀ, 7 pis PB porta 138. 07400 ALCÚDIA, Mallorca",
      "longitude": 3.130299271224183,
      "latitude": 39.8416214624324
    },
    {
      "name": "VILLA DEL LAGO 4",
      "location": "Alcúdia",
      "state": "Alta",
      "startDate": "03/10/2018",
      "address": "Carrer DE L´ATZAVARA, 3 bloc 2 porta 4. 07400 ALCÚDIA, Mallorca",
      "longitude": 3.114337349741154,
      "latitude": 39.82477392980696
    },
    {
      "name": "GIBSON",
      "location": "Alcúdia",
      "state": "Alta",
      "startDate": "22/02/2019",
      "address": "Carretera D´ARTÀ, 7 escala 3 pis 3 porta 48. 07400 ALCÚDIA, Mallorca",
      "longitude": 3.130299271224183,
      "latitude": 39.8416214624324
    },
    {
      "name": "ENCINA 1",
      "location": "Alcúdia",
      "state": "Alta",
      "startDate": "05/03/2019",
      "address": "D´ARTÀ, 116 pis 1 porta B. -, -",
      "longitude": 3.1149496138590838,
      "latitude": 39.8239488670819
    },
    {
      "name": "ENCINA 2",
      "location": "Alcúdia",
      "state": "Alta",
      "startDate": "05/03/2019",
      "address": "D´ARTÀ, 116 pis 2 porta C. -, -",
      "longitude": 3.1149496138590838,
      "latitude": 39.8239488670819
    },
    {
      "name": "CITTADINI 46",
      "location": "Alcúdia",
      "state": "Alta",
      "startDate": "04/03/2019",
      "address": "D´ARTÀ, 7 escala c pis 2 porta 46. -, -",
      "longitude": 3.130299271224183,
      "latitude": 39.8416214624324
    },
    {
      "name": "CASA PILAR",
      "location": "Alcúdia",
      "state": "Alta",
      "startDate": "12/03/2019",
      "address": "BERNAT DESCLOT, 11 escala 1 bloc 3 pis PB porta A ALCÚDIA",
      "longitude": 3.1125260402887456,
      "latitude": 39.852368794706116
    },
    {
      "name": "SUN OF ALCANADA",
      "location": "Alcúdia",
      "state": "Alta",
      "startDate": "31/01/2019",
      "address": "Camí ALCANADA, 76 escala 1 pis baix porta 4. 07400 ALCÚDIA, Mallorca",
      "longitude": 3.155252635633912,
      "latitude": 39.837564337515296
    },
    {
      "name": "MALLORCA, NORTH, BAY",
      "location": "Alcúdia",
      "state": "Alta",
      "startDate": "07/03/2019",
      "address": "CANET DE ROSSELLÓ, 19 escala E pis 00 porta 1. -, -",
      "longitude": 3.1061452515233694,
      "latitude": 39.857073862738346
    },
    {
      "name": "NORTH BAY 2",
      "location": "Alcúdia",
      "state": "Alta",
      "startDate": "16/05/2019",
      "address": "Carrer CANET DE ROSSELLÓ, 19 pis 2 porta DERECHA. 07400 ALCÚDIA, Mallorca",
      "longitude": 3.1061452515233694,
      "latitude": 39.857073862738346
    },
    {
      "name": "CASA PLAYA SUSANNE",
      "location": "Alcúdia",
      "state": "Alta",
      "startDate": "23/03/2020",
      "address": "Carretera D´ARTÀ, 7 escala B pis 3 porta 144. 07400 ALCÚDIA, Mallorca",
      "longitude": 3.130299271224183,
      "latitude": 39.8416214624324
    },
    {
      "name": "PLAYA DE LOS PINOS",
      "location": "Alcúdia",
      "state": "Alta",
      "startDate": "17/03/2021",
      "address": "Carrer GINESTA, 18 pis BX porta A. 07400 ALCÚDIA, Mallorca",
      "longitude": 3.115872177494416,
      "latitude": 39.82285074304442
    },
    {
      "name": "ANGY",
      "location": "Alcúdia",
      "state": "Alta",
      "startDate": "14/04/2021",
      "address": "D´ARTÀ, 25 lletra A pis 2 porta DRETA. -, -",
      "longitude": 3.123099855644921,
      "latitude": 39.840107735249354
    },
    {
      "name": "AIRMI",
      "location": "Alcúdia",
      "state": "Alta",
      "startDate": "18/05/2021",
      "address": "D´ARTÀ, 7 escala B bloc ANGLADA pis 1 porta 59. -, -",
      "longitude": 3.130299271224183,
      "latitude": 39.8416214624324
    },
    {
      "name": "MARITIMO",
      "location": "Alcúdia",
      "state": "Alta",
      "startDate": "18/03/2021",
      "address": "Carrer TEODOR CANET, 7 pis 2 porta F. 07400 ALCÚDIA, Mallorca",
      "longitude": 3.1338710169064052,
      "latitude": 39.84332229610533
    },
    {
      "name": "BLUE SKY",
      "location": "Alcúdia",
      "state": "Alta",
      "startDate": "04/02/2022",
      "address": "Carrer DELS PINS, 22 escala 1 pis 4º porta A. 07400 ALCÚDIA, Mallorca",
      "longitude": 3.12146682003451,
      "latitude": 39.854325696278366
    },
    {
      "name": "ES BARCARES",
      "location": "Alcúdia",
      "state": "Alta",
      "startDate": "21/03/2022",
      "address": "Carrer VOLANTÍ, 10 pis 1 porta 2. 07400 ALCÚDIA, Mallorca",
      "longitude": 3.117207676889676,
      "latitude": 39.86281094650963
    },
    {
      "name": "BEACHSIDE ALCUDIA",
      "location": "Alcúdia",
      "state": "Alta",
      "startDate": "24/02/2022",
      "address": "D´ARTÀ, 7 escala B bloc Miró pis 1 porta 100 (2). -, -",
      "longitude": 3.130299271224183,
      "latitude": 39.8416214624324
    },
    {
      "name": "MAR Y SOL",
      "location": "Alcúdia",
      "state": "Alta",
      "startDate": "20/12/2021",
      "address": "Camí DE SA TALAIA, 7 lletra A escala 1 pis 00 porta 01. 07400 ALCÚDIA, Mallorca",
      "longitude": 3.183024826657747,
      "latitude": 39.86258667067962
    },
    {
      "name": "BELLAMAR 23",
      "location": "Alcúdia",
      "state": "Alta",
      "startDate": "07/03/2022",
      "address": "D´ARTÀ, 95 pis 2 porta 3. -, -",
      "longitude": 3.1153577526815663,
      "latitude": 39.824079707254306
    },
    {
      "name": "AZULINO",
      "location": "Alcúdia",
      "state": "Alta",
      "startDate": "24/02/2022",
      "address": "DE PERE MAS I REUS, 25 pis 6 porta APT 603. -, -",
      "longitude": 3.110785926448148,
      "latitude": 39.82903173547356
    },
    {
      "name": "SCANDI",
      "location": "Alcúdia",
      "state": "Alta",
      "startDate": "22/02/2022",
      "address": "DE PERE MAS I REUS, 10 bloc 2 pis 2 porta 93. -, -",
      "longitude": 3.1129632031812418,
      "latitude": 39.83158478754381
    },
    {
      "name": "CANOPUS SEA VIEWS",
      "location": "Alcúdia",
      "state": "Alta",
      "startDate": "11/10/2018",
      "address": "D´ARTÀ, 45 escala E pis 3 porta 14. -, -",
      "longitude": 3.117328316601241,
      "latitude": 39.832048999281255
    },
    {
      "name": "CASA DEL MAR",
      "location": "Alcúdia",
      "state": "Alta",
      "startDate": "04/05/2023",
      "address": "Carretera D´ARTÀ, 7 escala B bloc DALÍ pis bjos porta 122. 07400 ALCÚDIA, Mallorca",
      "longitude": 3.130299271225886,
      "latitude": 39.8416214633334
    },
    {
      "name": "VILLA MUSSOL",
      "location": "Alcúdia",
      "state": "Alta",
      "startDate": "04/05/2017",
      "address": "Carrer MIRAMAR, 10. 07400 ALCÚDIA, Mallorca",
      "longitude": 3.1289147330166154,
      "latitude": 39.865907061256245
    },
    {
      "name": "CAS SASTRE",
      "location": "Alcúdia",
      "state": "Alta",
      "startDate": "02/05/2017",
      "address": "Carrer D´EN SERRA, 3 lletra A. 07400 ALCÚDIA, Mallorca",
      "longitude": 3.121963936340922,
      "latitude": 39.85238083230726
    },
    {
      "name": "ES QUATRE CARRERONS",
      "location": "Alcúdia",
      "state": "Alta",
      "startDate": "28/03/2008",
      "address": "POLIGON 5, PARCEL·LA 35, S/N. 07400 ALCÚDIA, Mallorca",
      "longitude": 3.106384336367892,
      "latitude": 39.8496567556901
    },
    {
      "name": "HEURA 8",
      "location": "Alcúdia",
      "state": "Alta",
      "startDate": "19/05/2017",
      "address": "Carrer HEURA, 8. 07400 ALCÚDIA, Mallorca",
      "longitude": 3.1547758134013923,
      "latitude": 39.86050347978537
    },
    {
      "name": "ESTRANYS 14",
      "location": "Alcúdia",
      "state": "Alta",
      "startDate": "19/05/2017",
      "address": "Carrer DELS ESTRANYS, 14. 07400 ALCÚDIA, Mallorca",
      "longitude": 3.1513782194049655,
      "latitude": 39.86523676852745
    },
    {
      "name": "GOYA",
      "location": "Alcúdia",
      "state": "Alta",
      "startDate": "26/05/2017",
      "address": "Carrer FRANCISCO DE GOYA, 15. 07400 ALCÚDIA, Mallorca",
      "longitude": 3.1005455225285403,
      "latitude": 39.857581778341185
    },
    {
      "name": "EULALIA ROMERO",
      "location": "Alcúdia",
      "state": "Alta",
      "startDate": "18/05/2017",
      "address": "Carrer DE L´AVELLANER, 12. 07400 ALCÚDIA, Mallorca",
      "longitude": 3.1518488955176918,
      "latitude": 39.86371543328536
    },
    {
      "name": "EL COSTE DE NA LLOSIA",
      "location": "Alcúdia",
      "state": "Alta",
      "startDate": "28/03/2008",
      "address": "POLIGON 6, PARCEL·LA 87 ALCÚDIA (Mallorca), Illes Balears",
      "longitude": 3.0760895889963753,
      "latitude": 39.840831188051474
    },
    {
      "name": "PUNTA MARINA",
      "location": "Alcúdia",
      "state": "Alta",
      "startDate": "05/06/2017",
      "address": "Passeig VORAMAR, 2. 07400 ALCÚDIA, Mallorca",
      "longitude": 3.114718221206944,
      "latitude": 39.86148599246703
    },
    {
      "name": "VILLA LLIMONA",
      "location": "Alcúdia",
      "state": "Alta",
      "startDate": "05/06/2017",
      "address": "Carrer CAN QUARTERA, 3. 07400 ALCÚDIA, Mallorca",
      "longitude": 3.1494507843484736,
      "latitude": 39.864039052755636
    },
    {
      "name": "CASA NICOLE",
      "location": "Alcúdia",
      "state": "Alta",
      "startDate": "01/06/2017",
      "address": "Carrer POLLS, 22. 07400 ALCÚDIA, Mallorca",
      "longitude": 3.1495221965530953,
      "latitude": 39.8595713008246
    },
    {
      "name": "CA NA FANNY",
      "location": "Alcúdia",
      "state": "Alta",
      "startDate": "08/06/2017",
      "address": "Carrer ANGLADA CAMARASA, 4 pis 3 porta A. 07400 ALCÚDIA, Mallorca",
      "longitude": 3.123939902167679,
      "latitude": 39.858558984069425
    },
    {
      "name": "CAN XENET GRAN",
      "location": "Alcúdia",
      "state": "Alta",
      "startDate": "21/04/2008",
      "address": "POLIGON 6, PARCEL·LA 10A ALCÚDIA (Mallorca), Illes Balears",
      "longitude": 3.0647373991549274,
      "latitude": 39.84872438930054
    },
    {
      "name": "CAN XENET P",
      "location": "Alcúdia",
      "state": "Alta",
      "startDate": "21/04/2008",
      "address": "POLIGON 6 PARCEL·LA 10B, 07400 ALCÚDIA (Mallorca), Illes Balears",
      "longitude": 3.0647373991549274,
      "latitude": 39.84872438930054
    },
    {
      "name": "OLIVERS PETITS",
      "location": "Alcúdia",
      "state": "Alta",
      "startDate": "20/05/2008",
      "address": "POLIGON 2, PARCEL·LA 49 ALCÚDIA (Mallorca), Illes Balears",
      "longitude": 3.132590080614377,
      "latitude": 39.85733279638616
    },
    {
      "name": "CA NA GUILLONA",
      "location": "Alcúdia",
      "state": "Alta",
      "startDate": "20/05/2008",
      "address": "POLIGON 5, PARCEL·LA 235 ALCÚDIA (Mallorca), Illes Balears",
      "longitude": 3.1117279303301997,
      "latitude": 39.84238298366078
    },
    {
      "name": "VILLA ROURE",
      "location": "Alcúdia",
      "state": "Alta",
      "startDate": "14/06/2017",
      "address": "Carrer ROURE, 28. 07400 ALCÚDIA, Mallorca",
      "longitude": 3.153751425271597,
      "latitude": 39.85930278978924
    },
    {
      "name": "CA NA GOSTA",
      "location": "Alcúdia",
      "state": "Alta",
      "startDate": "26/06/2017",
      "address": "Avinguda CAMP DE MAR, 29. 07400 ALCÚDIA, Mallorca",
      "longitude": 3.1187545155834915,
      "latitude": 39.86161789435475
    },
    {
      "name": "CA´N MIR",
      "location": "Alcúdia",
      "state": "Alta",
      "startDate": "13/06/2017",
      "address": "Avinguda DEL CAMP DE MAR, 27, 07400 ALCÚDIA (Mallorca), Illes Balears",
      "longitude": 3.118893708607187,
      "latitude": 39.86157541010652
    },
    {
      "name": "CAN GOSP",
      "location": "Alcúdia",
      "state": "Alta",
      "startDate": "01/07/2008",
      "address": "Carretera VELLA POLLENÇA-ALCÚDIA POLÍGON 5, PARCEL·LA 397, S/N. ALCÚDIA, Mallorca",
      "longitude": 3.0775049415881552,
      "latitude": 39.84929473598221
    },
    {
      "name": "CAN XANET",
      "location": "Alcúdia",
      "state": "Alta",
      "startDate": "01/07/2008",
      "address": "Polígon 5, PARCELA 397. 07400 ALCÚDIA, Mallorca",
      "longitude": 3.078546176859947,
      "latitude": 39.84944477356609
    },
    {
      "name": "CAS FERRER",
      "location": "Alcúdia",
      "state": "Alta",
      "startDate": "27/06/2017",
      "address": "Plaça LES ROQUES, 4. 07400 ALCÚDIA, Mallorca",
      "longitude": 3.143431779792002,
      "latitude": 39.86254282388935
    },
    {
      "name": "CAN GUIXE",
      "location": "Alcúdia",
      "state": "Alta",
      "startDate": "01/07/2008",
      "address": "POLIGON 5, PARCEL·LA 321, S/N. ALCÚDIA, Mallorca",
      "longitude": 3.081218943975618,
      "latitude": 39.848322895430165
    },
    {
      "name": "VELES DOS",
      "location": "Alcúdia",
      "state": "Alta",
      "startDate": "28/06/2017",
      "address": "VELES, 2. -, -",
      "longitude": 3.1171769580953455,
      "latitude": 39.86362897240348
    },
    {
      "name": "CAMP DE MAR TRENTA I CINC",
      "location": "Alcúdia",
      "state": "Alta",
      "startDate": "28/06/2017",
      "address": "Avinguda CAMP DE MAR, 35. 07400 ALCÚDIA, Mallorca",
      "longitude": 3.118375645909004,
      "latitude": 39.861706332878946
    },
    {
      "name": "CAN SERRA",
      "location": "Alcúdia",
      "state": "Alta",
      "startDate": "15/06/2017",
      "address": "Carrer DELS ALBELLONS, 4. 07400 ALCÚDIA, Mallorca",
      "longitude": 3.1207668297775086,
      "latitude": 39.85287713536084
    },
    {
      "name": "CA SOU",
      "location": "Alcúdia",
      "state": "Alta",
      "startDate": "01/07/2008",
      "address": "POLIGON 6, PARCEL·LA 44, 07400 ALCÚDIA (Mallorca), Illes Balears",
      "longitude": 3.072330540626193,
      "latitude": 39.84478521883629
    },
    {
      "name": "CAN ANCORES",
      "location": "Alcúdia",
      "state": "Alta",
      "startDate": "03/07/2017",
      "address": "Carrer ANCORES, 4. 07400 ALCÚDIA, Mallorca",
      "longitude": 3.1158613503338137,
      "latitude": 39.86195709645113
    },
    {
      "name": "L´ALZINA",
      "location": "Alcúdia",
      "state": "Alta",
      "startDate": "03/07/2008",
      "address": "POLIGON 5, PARCEL·LA 261 ALCÚDIA (Mallorca), Illes Balears",
      "longitude": 3.0875310516861094,
      "latitude": 39.8444565110895
    },
    {
      "name": "LA CASA DEL FAR",
      "location": "Alcúdia",
      "state": "Alta",
      "startDate": "05/07/2017",
      "address": "Camí ALCANADA, 93 lletra Izq. 07400 ALCÚDIA, Mallorca",
      "longitude": 3.162529363781962,
      "latitude": 39.83874509729923
    },
    {
      "name": "CA NA SORT",
      "location": "Alcúdia",
      "state": "Alta",
      "startDate": "07/07/2017",
      "address": "Carrer POU NOU, 11. 07400 ALCÚDIA, Mallorca",
      "longitude": 3.1226234180226498,
      "latitude": 39.85386433378774
    },
    {
      "name": "AIXA",
      "location": "Alcúdia",
      "state": "Alta",
      "startDate": "29/06/2017",
      "address": "Plaça MESTRES D´AIXA, 4. 07400 ALCÚDIA, Mallorca",
      "longitude": 3.1163750475275145,
      "latitude": 39.86428336400904
    },
    {
      "name": "CAN CANYARET ALCUDIA",
      "location": "Alcúdia",
      "state": "Alta",
      "startDate": "13/07/2017",
      "address": "Carrer CANYARET, 22. 07400 ALCÚDIA, Mallorca",
      "longitude": 3.1197962048969856,
      "latitude": 39.853989254792694
    },
    {
      "name": "VILA ROJA",
      "location": "Alcúdia",
      "state": "Alta",
      "startDate": "14/07/2017",
      "address": "Carrer PAU, 3. 07400 ALCÚDIA, Mallorca",
      "longitude": 3.121692801018899,
      "latitude": 39.854573301829056
    },
    {
      "name": "CAN XANET DE BAIX",
      "location": "Alcúdia",
      "state": "Alta",
      "startDate": "03/07/2008",
      "address": "Carretera ALCUDIA-POLLENÇA KM 1.5 PARCEL·LA 16 POLIGON 6, S/N. 07400 ALCÚDIA, Mallorca",
      "longitude": 3.067718740472102,
      "latitude": 39.85071255374407
    },
    {
      "name": "ESGLÉSIA 10",
      "location": "Alcúdia",
      "state": "Alta",
      "startDate": "21/07/2017",
      "address": "Carrer ESGLÉSIA, 10. 07400 ALCÚDIA, Mallorca",
      "longitude": 3.120070301292476,
      "latitude": 39.85248561218141
    },
    {
      "name": "SON  ROTGER",
      "location": "Alcúdia",
      "state": "Alta",
      "startDate": "15/07/2008",
      "address": "POLIGON 6 PARCEL·LA 339, 07400 ALCÚDIA (Mallorca), Illes Balears",
      "longitude": 3.061054962630945,
      "latitude": 39.84035434271652
    },
    {
      "name": "CA NA SERRIETA",
      "location": "Alcúdia",
      "state": "Alta",
      "startDate": "17/07/2017",
      "address": "Carrer VALENTS, 11. 07400 ALCÚDIA, Mallorca",
      "longitude": 3.120267932685066,
      "latitude": 39.85397713774584
    },
    {
      "name": "SA MARINA 7A",
      "location": "Alcúdia",
      "state": "Alta",
      "startDate": "24/07/2017",
      "address": "Carrer CANET DE ROSSELLÓ, 7 lletra A. 07400 ALCÚDIA, Mallorca",
      "longitude": 3.1055421087275907,
      "latitude": 39.85717016077316
    },
    {
      "name": "ES BARCARES",
      "location": "Alcúdia",
      "state": "Alta",
      "startDate": "24/07/2017",
      "address": "Carrer ANCORES, 14. 07400 ALCÚDIA, Mallorca",
      "longitude": 3.1180425471385442,
      "latitude": 39.86124918338576
    },
    {
      "name": "CASA COROMINES",
      "location": "Alcúdia",
      "state": "Alta",
      "startDate": "27/08/2018",
      "address": "Carrer JOAN COROMINES, 1. 07400 ALCÚDIA, Mallorca",
      "longitude": 3.1285445502247913,
      "latitude": 39.86447399406323
    },
    {
      "name": "CAN PUPUT",
      "location": "Alcúdia",
      "state": "Alta",
      "startDate": "18/07/2008",
      "address": "POLÍGON 7, PARCEL·LA 141, S/N. 07400 ALCÚDIA, Mallorca",
      "longitude": 3.122377783969398,
      "latitude": 39.85252716128187
    },
    {
      "name": "CASA SA MARINA",
      "location": "Alcúdia",
      "state": "Alta",
      "startDate": "02/10/2018",
      "address": "BOSCO, 2. -, -",
      "longitude": 3.101464908322815,
      "latitude": 39.85826699457054
    },
    {
      "name": "CASA TIENDA",
      "location": "Alcúdia",
      "state": "Alta",
      "startDate": "29/07/2008",
      "address": "Carrer LUXEMBURGO, 22. 07400 ALCÚDIA, Mallorca",
      "longitude": 3.109022046084192,
      "latitude": 39.83199292272803
    },
    {
      "name": "CASA DE ARCOS",
      "location": "Alcúdia",
      "state": "Alta",
      "startDate": "29/07/2008",
      "address": "POLIGON 4, PARCEL·LA 226, S/N. ALCÚDIA, Mallorca",
      "longitude": 3.1042679169818386,
      "latitude": 39.845309892313686
    },
    {
      "name": "CASA AMBIENTE",
      "location": "Alcúdia",
      "state": "Alta",
      "startDate": "07/08/2008",
      "address": "POLIGON 6, PARCEL·LA 469, S/N. ALCÚDIA, Mallorca",
      "longitude": 3.0541153617227432,
      "latitude": 39.83619243917222
    },
    {
      "name": "CA´N SAGUER",
      "location": "Alcúdia",
      "state": "Alta",
      "startDate": "07/08/2008",
      "address": "POLIGON 6, PARCE·LA 490, S/N. ALCÚDIA, Mallorca",
      "longitude": 3.0565458074913727,
      "latitude": 39.83458226376969
    },
    {
      "name": "ES CLOS",
      "location": "Alcúdia",
      "state": "Alta",
      "startDate": "08/09/2008",
      "address": "POLIGON 6,  PARCEL·LA  186, 07400 ALCÚDIA (Mallorca), Illes Balears",
      "longitude": 3.0635815637820474,
      "latitude": 39.83796342947211
    },
    {
      "name": "CASA PEPI",
      "location": "Alcúdia",
      "state": "Alta",
      "startDate": "08/09/2008",
      "address": "POLIGON 5,  PARCEL·LA 555, 07400 ALCÚDIA (Mallorca), Illes Balears",
      "longitude": 3.0708255628707484,
      "latitude": 39.85860690709547
    },
    {
      "name": "FINCA SES CONTESAS",
      "location": "Alcúdia",
      "state": "Alta",
      "startDate": "08/09/2008",
      "address": "POLIGON 2, PARCEL·LA  21-A, 07400 ALCÚDIA (Mallorca), Illes Balears",
      "longitude": 3.1274498412797156,
      "latitude": 39.85618716704367
    },
    {
      "name": "SA MARINA",
      "location": "Alcúdia",
      "state": "Alta",
      "startDate": "28/09/2018",
      "address": "Carrer PORT POLLENÇA, 19. 07400 ALCÚDIA, Mallorca",
      "longitude": 3.1013275733638235,
      "latitude": 39.8583498653524
    },
    {
      "name": "CAN NADAL",
      "location": "Alcúdia",
      "state": "Alta",
      "startDate": "10/09/2008",
      "address": "POLIGON 6 PARCEL·LA 13, 07400 ALCÚDIA (Mallorca), Illes Balears",
      "longitude": 3.0660150586238974,
      "latitude": 39.85044422581356
    },
    {
      "name": "CAN SEGUINET",
      "location": "Alcúdia",
      "state": "Alta",
      "startDate": "10/09/2008",
      "address": "Camí VELL DE LA VICTORIA, 12. 07400 ALCÚDIA, Mallorca",
      "longitude": 3.1404182287305935,
      "latitude": 39.86299606707442
    },
    {
      "name": "COMTESES PETIT",
      "location": "Alcúdia",
      "state": "Alta",
      "startDate": "10/09/2008",
      "address": "POLÍGON 2, PARCEL·LA 21, 07400 ALCÚDIA (Mallorca), Illes Balears",
      "longitude": 3.1274498412797156,
      "latitude": 39.85618716704367
    },
    {
      "name": "VILLA BEACH ALCUDIA",
      "location": "Alcúdia",
      "state": "Alta",
      "startDate": "13/03/2019",
      "address": "Carretera D´ARTÀ, 112A escala 4 pis PB porta 1. 07400 ALCÚDIA, Mallorca",
      "longitude": 3.115387133050766,
      "latitude": 39.826006137944646
    },
    {
      "name": "LOS SAUCES",
      "location": "Alcúdia",
      "state": "Alta",
      "startDate": "03/10/2008",
      "address": "Carrer FRANCISCO DE GOYA, 3. 07400 ALCÚDIA, Mallorca",
      "longitude": 3.09950569218546,
      "latitude": 39.85786387514216
    },
    {
      "name": "CASA LIJA",
      "location": "Alcúdia",
      "state": "Alta",
      "startDate": "28/06/2007",
      "address": "Carrer ESTRANYS, 70. 07400 ALCÚDIA, Mallorca",
      "longitude": 3.1521133866141526,
      "latitude": 39.86109065576846
    },
    {
      "name": "CASA ROSA",
      "location": "Alcúdia",
      "state": "Alta",
      "startDate": "28/06/2007",
      "address": "Carrer ESTRANYS, 59. 07400 ALCÚDIA, Mallorca",
      "longitude": 3.152594576390127,
      "latitude": 39.861367452538566
    },
    {
      "name": "SOL Y MAR",
      "location": "Alcúdia",
      "state": "Alta",
      "startDate": "21/06/2017",
      "address": "Carrer L´ALFABEGUERA, 1. 07400 ALCÚDIA, Mallorca",
      "longitude": 3.154358615669983,
      "latitude": 39.85882240724835
    },
    {
      "name": "LA TRUYOLA",
      "location": "Alcúdia",
      "state": "Alta",
      "startDate": "17/12/2008",
      "address": "POLIGON 6 PARCEL·LA 40, 07400 ALCÚDIA (Mallorca), Illes Balears",
      "longitude": 3.074215274812111,
      "latitude": 39.84678317654256
    },
    {
      "name": "MERCADER",
      "location": "Alcúdia",
      "state": "Alta",
      "startDate": "17/12/2008",
      "address": "POLIGON 5, PARCEL·LA 505,506,507 ALCÚDIA (Mallorca), Illes Balears",
      "longitude": 3.0674758707385754,
      "latitude": 39.85183048003687
    },
    {
      "name": "CAN GOSP",
      "location": "Alcúdia",
      "state": "Alta",
      "startDate": "21/01/2009",
      "address": "POLIGON 5 PARCEL·LA 384, 07400 ALCÚDIA (Mallorca), Illes Balears",
      "longitude": 3.076918618369824,
      "latitude": 39.84669464894007
    },
    {
      "name": "VERTENT",
      "location": "Alcúdia",
      "state": "Alta",
      "startDate": "29/06/2007",
      "address": "POLIGON 6 PARCEL·LA 37, S/N. 07400 ALCÚDIA, Mallorca",
      "longitude": 3.071437273728298,
      "latitude": 39.847251099934205
    },
    {
      "name": "VILLA CARLOTA",
      "location": "Alcúdia",
      "state": "Alta",
      "startDate": "27/06/2019",
      "address": "Carrer MALVA, 13. 07400 ALCÚDIA, Mallorca",
      "longitude": 3.1569566076876634,
      "latitude": 39.862908723992724
    },
    {
      "name": "CAN PERELLO",
      "location": "Alcúdia",
      "state": "Alta",
      "startDate": "02/07/2007",
      "address": "POLIGON 6 PARCEL·LA 29, S/N. 07400 ALCÚDIA, Mallorca",
      "longitude": 3.069407415699984,
      "latitude": 39.84767418218693
    },
    {
      "name": "SAVINES",
      "location": "Alcúdia",
      "state": "Alta",
      "startDate": "07/03/2019",
      "address": "Carrer SAVINES, 3. 07400 ALCÚDIA, Mallorca",
      "longitude": 3.1123028686075007,
      "latitude": 39.818321247044466
    },
    {
      "name": "CAN CASTELL",
      "location": "Alcúdia",
      "state": "Alta",
      "startDate": "05/03/2009",
      "address": "POLÍGON 5, PARCEL·LA 751, S/N. 07400 ALCÚDIA, Mallorca",
      "longitude": 3.0759514608300003,
      "latitude": 39.85740100633519
    },
    {
      "name": "VILLA MENORCA",
      "location": "Alcúdia",
      "state": "Alta",
      "startDate": "09/06/2021",
      "address": "Carrer TINTORETTO, 4. 07400 ALCÚDIA, Mallorca",
      "longitude": 3.104995067941815,
      "latitude": 39.85589817062966
    },
    {
      "name": "LOS NUEVE PINOS",
      "location": "Alcúdia",
      "state": "Alta",
      "startDate": "30/07/2021",
      "address": "Carrer ESTRANYS, 53. 07400 ALCÚDIA, Mallorca",
      "longitude": 3.154018941656418,
      "latitude": 39.86170699874141
    },
    {
      "name": "CAN CASTELL",
      "location": "Alcúdia",
      "state": "Alta",
      "startDate": "05/03/2009",
      "address": "POLIGON 5, PARCEL·LA 751, S/N. ALCÚDIA, Mallorca",
      "longitude": 3.0759514608300003,
      "latitude": 39.85740100633519
    },
    {
      "name": "CASA KERCHNER",
      "location": "Alcúdia",
      "state": "Alta",
      "startDate": "29/11/2018",
      "address": "Carrer IGNACI ZULOAGA, 9. 07400 ALCÚDIA, Mallorca",
      "longitude": 3.1042073385410096,
      "latitude": 39.85614634576509
    },
    {
      "name": "NANA",
      "location": "Alcúdia",
      "state": "Alta",
      "startDate": "19/01/2022",
      "address": "Camí VELL DE LA VICTÒRIA, 20. 07400 ALCÚDIA, Mallorca",
      "longitude": 3.141321664511038,
      "latitude": 39.863782680314095
    },
    {
      "name": "VILLA ES BARCARES 26",
      "location": "Alcúdia",
      "state": "Alta",
      "startDate": "14/02/2022",
      "address": "Carrer XARXES, 26. 07400 ALCÚDIA, Mallorca",
      "longitude": 3.116194463735694,
      "latitude": 39.862327566796225
    },
    {
      "name": "VILLA HEURA",
      "location": "Alcúdia",
      "state": "Alta",
      "startDate": "27/12/2021",
      "address": "Carrer HEURA, 18. 07400 ALCÚDIA, Mallorca",
      "longitude": 3.1554427578865636,
      "latitude": 39.85933134095133
    },
    {
      "name": "CAS CARBONER",
      "location": "Alcúdia",
      "state": "Alta",
      "startDate": "21/06/2023",
      "address": "Passeig DE VORAMAR, 41. 07400 ALCÚDIA, Mallorca",
      "longitude": 3.110984523453336,
      "latitude": 39.85910367396255
    },
    {
      "name": "ELS OSCOLS D´ALT II",
      "location": "Alcúdia",
      "state": "Alta",
      "startDate": "29/04/2009",
      "address": "Polígon 7, PARCEL·LA 44. 07400 ALCÚDIA, Mallorca",
      "longitude": 3.0806842314796765,
      "latitude": 39.83130733675565
    },
    {
      "name": "ELS OSCOLS D´ALT I",
      "location": "Alcúdia",
      "state": "Alta",
      "startDate": "29/04/2009",
      "address": "Polígon 7, PARCEL·LA 44. 07400 ALCÚDIA, Mallorca",
      "longitude": 3.0806842314796765,
      "latitude": 39.83130733675565
    },
    {
      "name": "CA´N ROCA",
      "location": "Alcúdia",
      "state": "Alta",
      "startDate": "22/05/2009",
      "address": "POLÍGON 5, PARCEL·LA 89 ALCÚDIA (Mallorca), Illes Balears",
      "longitude": 3.1031609178986517,
      "latitude": 39.85276019921333
    },
    {
      "name": "CAN NYANY",
      "location": "Alcúdia",
      "state": "Alta",
      "startDate": "22/05/2009",
      "address": "POLÍGON 1, PARCEL·LA 40 ALCÚDIA (Mallorca), Illes Balears",
      "longitude": 3.11686381778222,
      "latitude": 39.855546439394324
    },
    {
      "name": "CASTELL DE MANRESA",
      "location": "Alcúdia",
      "state": "Alta",
      "startDate": "10/08/2009",
      "address": "Polígon 2, PARCEL·LA 290- PARAJE SA TAULERA. 07400 ALCÚDIA, Mallorca",
      "longitude": 3.130444823955627,
      "latitude": 39.854065581092726
    },
    {
      "name": "CAN XAMANTO",
      "location": "Alcúdia",
      "state": "Alta",
      "startDate": "08/09/2009",
      "address": "POLÍGON 6, PARCEL·LA 521, 07400 ALCÚDIA (Mallorca), Illes Balears",
      "longitude": 3.0573466061849905,
      "latitude": 39.829531279401216
    },
    {
      "name": "BONA VISTA",
      "location": "Alcúdia",
      "state": "Alta",
      "startDate": "14/09/2009",
      "address": "POLIGONO 5, PARCELA 138 ALCÚDIA (Mallorca), Illes Balears",
      "longitude": 3.0954472369487047,
      "latitude": 39.85124347634544
    },
    {
      "name": "OLIVERS DE CAN VERA",
      "location": "Alcúdia",
      "state": "Alta",
      "startDate": "23/11/2009",
      "address": "POLIGON 2 PARCEL·LA 76, 07400 ALCÚDIA (Mallorca), Illes Balears",
      "longitude": 3.1325128144409895,
      "latitude": 39.85891855804749
    },
    {
      "name": "CAN VINGO",
      "location": "Alcúdia",
      "state": "Alta",
      "startDate": "03/03/2010",
      "address": "POLÍGON 6, PARCEL·LA 119, 07400 ALCÚDIA (Mallorca), Illes Balears",
      "longitude": 3.0695012656675766,
      "latitude": 39.83896501558243
    },
    {
      "name": "MORÉ VERMELL",
      "location": "Alcúdia",
      "state": "Alta",
      "startDate": "03/03/2010",
      "address": "Carrer TIRANT LO BLANC, 24. 07400 ALCÚDIA, Mallorca",
      "longitude": 3.126192032817817,
      "latitude": 39.86390365855141
    },
    {
      "name": "CA´N XANET",
      "location": "Alcúdia",
      "state": "Alta",
      "startDate": "29/03/2010",
      "address": "POLIGON 5 PARCEL·LA 483, S/N. 07400 ALCÚDIA, Mallorca",
      "longitude": 3.076375664629664,
      "latitude": 39.853447128034915
    },
    {
      "name": "CAN JAUME DETS OSCOLS",
      "location": "Alcúdia",
      "state": "Alta",
      "startDate": "10/06/2010",
      "address": "POLIGON 5, PARCEL·LA 207, S/N. ALCÚDIA, Mallorca",
      "longitude": 3.09157730674241,
      "latitude": 39.853514330564686
    },
    {
      "name": "VILLA SAMUEL",
      "location": "Alcúdia",
      "state": "Alta",
      "startDate": "12/08/2010",
      "address": "POLÍGON 5, PARCEL·LA 90, 07400 ALCÚDIA (Mallorca), Illes Balears",
      "longitude": 3.1037337747139584,
      "latitude": 39.85294475437965
    },
    {
      "name": "CA NA BASSERA",
      "location": "Alcúdia",
      "state": "Alta",
      "startDate": "21/02/2013",
      "address": "Polígon 7 PARCEL·LA 337. 07400 ALCÚDIA, Mallorca",
      "longitude": 3.0663554103973985,
      "latitude": 39.80678412066548
    },
    {
      "name": "CAN BURGUES",
      "location": "Alcúdia",
      "state": "Alta",
      "startDate": "03/07/2007",
      "address": "POLIGON 5 PARCEL·LA 399, 07400 ALCÚDIA (Mallorca), Illes Balears",
      "longitude": 3.076257416470277,
      "latitude": 39.84958928992454
    },
    {
      "name": "CAN GALET",
      "location": "Alcúdia",
      "state": "Alta",
      "startDate": "28/06/2013",
      "address": "Polígon 7, PARC 207. 07400 ALCÚDIA, Mallorca",
      "longitude": 3.0652104447236805,
      "latitude": 39.828309865769505
    },
    {
      "name": "VILLA ROURE",
      "location": "Alcúdia",
      "state": "Alta",
      "startDate": "24/06/2013",
      "address": "SOLAR 178, URB. PARAISO DE BONAIRE, VIA ROURE, S/N. ALCÚDIA, Mallorca",
      "longitude": 3.1526786286815023,
      "latitude": 39.86020660983616
    },
    {
      "name": "PUERTO MAR",
      "location": "Alcúdia",
      "state": "Alta",
      "startDate": "13/09/2013",
      "address": "Carrer VOLANTI, 4. ALCÚDIA, Mallorca",
      "longitude": 3.1175724084528476,
      "latitude": 39.86347798491272
    },
    {
      "name": "ES MOLÍ",
      "location": "Alcúdia",
      "state": "Alta",
      "startDate": "13/09/2013",
      "address": "Carrer ANTONI TORRES, 1. 07400 ALCÚDIA, Mallorca",
      "longitude": 3.1232076523976238,
      "latitude": 39.85920109115597
    },
    {
      "name": "ELS COSTERS DE NA LLUCIA",
      "location": "Alcúdia",
      "state": "Alta",
      "startDate": "30/03/2007",
      "address": "Carrer DE VERTENT, S/N. ALCÚDIA, Mallorca",
      "longitude": 3.1117279303301997,
      "latitude": 39.84238298366078
    },
    {
      "name": "FINCA BOMMIX",
      "location": "Alcúdia",
      "state": "Alta",
      "startDate": "04/07/2007",
      "address": "Carretera ALCUDIA - SA POBLA, POLIGON 6, PARCEL·LA 110, S/N. ALCÚDIA, Mallorca",
      "longitude": 3.069431730362176,
      "latitude": 39.840712466581834
    },
    {
      "name": "POU D´AMBROITX",
      "location": "Alcúdia",
      "state": "Alta",
      "startDate": "04/07/2007",
      "address": "POLIGON 5 PARCEL·LA 178, S/N. 07400 ALCÚDIA, Mallorca",
      "longitude": 3.0879477851135526,
      "latitude": 39.84906293920002
    },
    {
      "name": "SON ROTGER",
      "location": "Alcúdia",
      "state": "Alta",
      "startDate": "04/07/2007",
      "address": "POLIGON 6 PARCEL·LA 183, S/N. 07400 ALCÚDIA, Mallorca",
      "longitude": 3.064946200559291,
      "latitude": 39.838333977902764
    },
    {
      "name": "VILLA SA PORTASSA",
      "location": "Alcúdia",
      "state": "Alta",
      "startDate": "04/02/2014",
      "address": "Avinguda JAUME I, 9. 07400 ALCÚDIA, Mallorca",
      "longitude": 3.1209595199115183,
      "latitude": 39.85593642362373
    },
    {
      "name": "SES OLIVERES",
      "location": "Alcúdia",
      "state": "Alta",
      "startDate": "08/05/2014",
      "address": "Carrer HEURA, 24. 07400 ALCÚDIA, Mallorca",
      "longitude": 3.155999687167707,
      "latitude": 39.85882703484673
    },
    {
      "name": "CAN XILLA",
      "location": "Alcúdia",
      "state": "Alta",
      "startDate": "12/05/2014",
      "address": "Polígon 3, PARCEL·LA 215. 07400 ALCÚDIA, Mallorca",
      "longitude": 3.1564623279236024,
      "latitude": 39.84246984035133
    },
    {
      "name": "ELS OSCOLS 53",
      "location": "Alcúdia",
      "state": "Alta",
      "startDate": "12/05/2014",
      "address": "Polígon 7 PARCEL·LA 53. 07400 ALCÚDIA, Mallorca",
      "longitude": 3.0752700598362015,
      "latitude": 39.83711705820743
    },
    {
      "name": "FINCA CA NA QUARTA",
      "location": "Alcúdia",
      "state": "Alta",
      "startDate": "26/03/2014",
      "address": "Camí DE S´ALOU, POL. 3, PARC 84, S/N. 07400 ALCÚDIA, Mallorca",
      "longitude": 3.148224649442916,
      "latitude": 39.86324942505969
    },
    {
      "name": "MARINA",
      "location": "Alcúdia",
      "state": "Alta",
      "startDate": "10/04/2014",
      "address": "Carrer IGNACIO ZULOAGA, 13. ALCÚDIA, Mallorca",
      "longitude": 3.1037997239130717,
      "latitude": 39.85611107990216
    },
    {
      "name": "CA´N CANTÓ",
      "location": "Alcúdia",
      "state": "Alta",
      "startDate": "10/07/2007",
      "address": "POLÍGON 7, PARCEL·LA 81, 07400 ALCÚDIA (Mallorca), Illes Balears",
      "longitude": 3.070382304832156,
      "latitude": 39.83222793440621
    },
    {
      "name": "SON FE",
      "location": "Alcúdia",
      "state": "Alta",
      "startDate": "09/04/2014",
      "address": "Polígon 4, PARC 214. 07400 ALCÚDIA, Mallorca",
      "longitude": 3.1045017007666282,
      "latitude": 39.847936468813565
    },
    {
      "name": "CAN LOS CARROS",
      "location": "Alcúdia",
      "state": "Alta",
      "startDate": "10/04/2014",
      "address": "Polígon 3, PARCELA 225. 07400 ALCÚDIA, Mallorca",
      "longitude": 3.1555179569106313,
      "latitude": 39.84912087806072
    },
    {
      "name": "VILLA BARCARÈS",
      "location": "Alcúdia",
      "state": "Alta",
      "startDate": "03/06/2014",
      "address": "Carrer COSTA Y LLOBERA, 17. 07409 ALCÚDIA, Mallorca",
      "longitude": 3.1124677954950353,
      "latitude": 39.8588406248344
    },
    {
      "name": "VILLA ESCRIBANO",
      "location": "Alcúdia",
      "state": "Alta",
      "startDate": "03/06/2014",
      "address": "Carrer IGNACIO ZULUAGA, 7. 07400 ALCÚDIA, Mallorca",
      "longitude": 3.1043873314819477,
      "latitude": 39.856190262596336
    },
    {
      "name": "FINCA TONI",
      "location": "Alcúdia",
      "state": "Alta",
      "startDate": "03/06/2014",
      "address": "Polígon 4, PARC 173. 07400 ALCÚDIA, Mallorca",
      "longitude": 3.1099266310524327,
      "latitude": 39.844902910638226
    },
    {
      "name": "ES BALCO",
      "location": "Alcúdia",
      "state": "Alta",
      "startDate": "14/08/2014",
      "address": "Camí VELL DE LA VICTORIA, 25. 07400 ALCÚDIA, Mallorca",
      "longitude": 3.149776632819923,
      "latitude": 39.868004163176984
    },
    {
      "name": "CAN PAROYA",
      "location": "Alcúdia",
      "state": "Alta",
      "startDate": "10/07/2007",
      "address": "POLIGON 5 PARCEL·LA 519, 07400 ALCÚDIA (Mallorca), Illes Balears",
      "longitude": 3.0682604474353914,
      "latitude": 39.85591102381757
    },
    {
      "name": "FINCA CA´L REI",
      "location": "Alcúdia",
      "state": "Alta",
      "startDate": "20/06/2014",
      "address": "Avinguda CA´L REI, 6. 07409 ALCÚDIA, Mallorca",
      "longitude": 3.1117279303301997,
      "latitude": 39.84238298366078
    },
    {
      "name": "CA NA MALANYONA",
      "location": "Alcúdia",
      "state": "Alta",
      "startDate": "26/06/2014",
      "address": "Polígon 6, PARC 83 A. 07400 ALCÚDIA, Mallorca",
      "longitude": 3.077566186665656,
      "latitude": 39.84222442510348
    },
    {
      "name": "GRECO 6 - SA MARINA",
      "location": "Alcúdia",
      "state": "Alta",
      "startDate": "16/07/2014",
      "address": "Carrer GRECO, 6. 07400 ALCÚDIA, Mallorca",
      "longitude": 3.105206610620276,
      "latitude": 39.856595210235845
    },
    {
      "name": "S´HORT",
      "location": "Alcúdia",
      "state": "Alta",
      "startDate": "10/07/2007",
      "address": "POLIGON 5 PARCEL·LA 5, 07400 ALCÚDIA (Mallorca), Illes Balears",
      "longitude": 3.111061408508722,
      "latitude": 39.85094639329142
    },
    {
      "name": "VILLA MIRAMAR",
      "location": "Alcúdia",
      "state": "Alta",
      "startDate": "09/12/2014",
      "address": "Carrer MIRAMAR (URBANITZACIO MANRESA), 4. 07400 ALCÚDIA, Mallorca",
      "longitude": 3.12764551324818,
      "latitude": 39.86516246357474
    },
    {
      "name": "SA OLIVERA",
      "location": "Alcúdia",
      "state": "Alta",
      "startDate": "16/07/2014",
      "address": "Camí DE CAN BREGAT, POL 5, PARC 192, S/N. 07400 ALCÚDIA, Mallorca",
      "longitude": 3.0933190029911866,
      "latitude": 39.84917974762729
    },
    {
      "name": "CAN MARTI",
      "location": "Alcúdia",
      "state": "Alta",
      "startDate": "30/06/2014",
      "address": "Polígon 7, PARC 336. 07400 ALCÚDIA, Mallorca",
      "longitude": 3.0599266966870515,
      "latitude": 39.80454148971229
    },
    {
      "name": "SA COVA",
      "location": "Alcúdia",
      "state": "Alta",
      "startDate": "16/07/2014",
      "address": "Polígon  1 - PARCELA 19. 07400 ALCÚDIA, Mallorca",
      "longitude": 3.120613826517703,
      "latitude": 39.857771950892634
    },
    {
      "name": "CASA 2000",
      "location": "Alcúdia",
      "state": "Alta",
      "startDate": "07/08/2014",
      "address": "Carrer ANGLADA CAMARASA, URB CA S´INGLES, S/N. 07400 ALCÚDIA, Mallorca",
      "longitude": 3.1238618053729126,
      "latitude": 39.85860447600097
    },
    {
      "name": "CA NA CONCHA",
      "location": "Alcúdia",
      "state": "Alta",
      "startDate": "09/07/2007",
      "address": "POLIGON 5, PARCEL·LA 279, S/N. ALCÚDIA, Mallorca",
      "longitude": 3.0827286685864435,
      "latitude": 39.843690397120554
    },
    {
      "name": "VILLA AQUA",
      "location": "Alcúdia",
      "state": "Alta",
      "startDate": "07/08/2014",
      "address": "Carrer TALAIA 22 BAJOS A, S/N. 07410 ALCÚDIA, Mallorca",
      "longitude": 3.1555542223707693,
      "latitude": 39.839408347219084
    },
    {
      "name": "CAN SEGUE",
      "location": "Alcúdia",
      "state": "Alta",
      "startDate": "09/07/2007",
      "address": "POLIGON 6 PARCEL·LA 451, 07400 ALCÚDIA (Mallorca), Illes Balears",
      "longitude": 3.0608700382405463,
      "latitude": 39.831857505194144
    },
    {
      "name": "CASA MURALLA",
      "location": "Alcúdia",
      "state": "Alta",
      "startDate": "29/07/2016",
      "address": "Carrer JONQUERA, 14. 07400 Alcanada, ALCÚDIA, Mallorca",
      "longitude": 3.120281670340608,
      "latitude": 39.85418299150243
    },
    {
      "name": "MOAI",
      "location": "Alcúdia",
      "state": "Alta",
      "startDate": "07/10/2014",
      "address": "Carrer IGNACI ZULOAGA, 5. 07400 ALCÚDIA, Mallorca",
      "longitude": 3.1043873314819477,
      "latitude": 39.856190262596336
    },
    {
      "name": "CA´N MORANTA",
      "location": "Alcúdia",
      "state": "Alta",
      "startDate": "09/07/2007",
      "address": "POLIGON 6, PARCEL·LA 273, 07400 ALCÚDIA (Mallorca), Illes Balears",
      "longitude": 3.0485654196089946,
      "latitude": 39.84645454860997
    },
    {
      "name": "CAN QUINIELLES",
      "location": "Alcúdia",
      "state": "Alta",
      "startDate": "07/10/2014",
      "address": "Plaça 7 PARCEL·LA 154, S/N. 07400 ALCÚDIA, Mallorca",
      "longitude": 3.0748943505283535,
      "latitude": 39.82413334642268
    },
    {
      "name": "CASA QUE PASA",
      "location": "Alcúdia",
      "state": "Alta",
      "startDate": "06/10/2014",
      "address": "Camí DES COLL BAIX, S/N. 07400 ALCÚDIA, Mallorca",
      "longitude": 3.1117279303301997,
      "latitude": 39.84238298366078
    },
    {
      "name": "CAN SINGA",
      "location": "Alcúdia",
      "state": "Alta",
      "startDate": "10/07/2007",
      "address": "Camí CAN MOI  POLIGON 7 PARCEL·LA 106, S/N. 07400 ALCÚDIA, Mallorca",
      "longitude": 3.0911217949152467,
      "latitude": 39.83534044069817
    },
    {
      "name": "CA S´ANGLES",
      "location": "Alcúdia",
      "state": "Alta",
      "startDate": "12/02/2015",
      "address": "Carrer ANGLADA CAMARASA, 4 local 2B. 07400 ALCÚDIA, Mallorca",
      "longitude": 3.1239722437977067,
      "latitude": 39.858473767883055
    },
    {
      "name": "LOS ROSALES",
      "location": "Alcúdia",
      "state": "Alta",
      "startDate": "09/02/2015",
      "address": "Camí S´HORT DES MOROS, S/N. 07400 ALCÚDIA, Mallorca",
      "longitude": 3.1274153058701537,
      "latitude": 39.86011686573242
    },
    {
      "name": "VILLA TITA",
      "location": "Alcúdia",
      "state": "Alta",
      "startDate": "09/12/2014",
      "address": "Carrer BOSC 3 URBANITZACIO MANRESA, S/N. ALCÚDIA, Mallorca",
      "longitude": 3.1284393824789003,
      "latitude": 39.86490989598997
    },
    {
      "name": "RANXO SES ROQUES",
      "location": "Alcúdia",
      "state": "Alta",
      "startDate": "15/05/2015",
      "address": "Avinguda FRANÇA S/N POL. 4 PARC. 365, S/N. 07400 ALCÚDIA, Mallorca",
      "longitude": 3.1089671994325956,
      "latitude": 39.83332570847879
    },
    {
      "name": "FINCA CAN XAVI",
      "location": "Alcúdia",
      "state": "Alta",
      "startDate": "25/02/2015",
      "address": "Camí SON ROTGER POLIGON 6 PARCELA 297, S/N. 07400 ALCÚDIA, Mallorca",
      "longitude": 3.0534696059043673,
      "latitude": 39.84443567395319
    },
    {
      "name": "CAN VICENS",
      "location": "Alcúdia",
      "state": "Alta",
      "startDate": "14/04/2015",
      "address": "Carrer SANT VICENÇ, 10. 07400 ALCÚDIA, Mallorca",
      "longitude": 3.1223351793573157,
      "latitude": 39.85271993605388
    },
    {
      "name": "CA NA LLORENÇA",
      "location": "Alcúdia",
      "state": "Alta",
      "startDate": "13/05/2015",
      "address": "Polígon 5, PARCELAS 198 Y 199. 07400 ALCÚDIA, Mallorca",
      "longitude": 3.09448320691381,
      "latitude": 39.85245746627967
    },
    {
      "name": "CAN TIRENET",
      "location": "Alcúdia",
      "state": "Alta",
      "startDate": "02/10/2015",
      "address": "Polígon 6, PARC 372, FINCA SON FE. 07400 ALCÚDIA, Mallorca",
      "longitude": 3.063928233817767,
      "latitude": 39.83483062237533
    },
    {
      "name": "CA NA CONCEDA",
      "location": "Alcúdia",
      "state": "Alta",
      "startDate": "27/05/2015",
      "address": "Polígon 4, PARC 313. 07400 ALCÚDIA, Mallorca",
      "longitude": 3.0970896771879475,
      "latitude": 39.843874515019735
    },
    {
      "name": "CASA BONAIRE",
      "location": "Alcúdia",
      "state": "Alta",
      "startDate": "10/07/2007",
      "address": "SOLAR 82 URB. VALLE DEL COCODRILO, S/N. 07400 ALCÚDIA, Mallorca",
      "longitude": 3.1117279303301997,
      "latitude": 39.84238298366078
    },
    {
      "name": "EL CAMP ROIG",
      "location": "Alcúdia",
      "state": "Alta",
      "startDate": "27/05/2015",
      "address": "Polígon 2, PARC 121. 07400 ALCÚDIA, Mallorca",
      "longitude": 3.1337884463909917,
      "latitude": 39.861094184164784
    },
    {
      "name": "CA NA BOTIGUETA",
      "location": "Alcúdia",
      "state": "Alta",
      "startDate": "27/05/2015",
      "address": "Avinguda DE LA MARINA, 66. 07400 ALCÚDIA, Mallorca",
      "longitude": 3.1137839072415443,
      "latitude": 39.85285663566375
    },
    {
      "name": "CA NA PATUFA",
      "location": "Alcúdia",
      "state": "Alta",
      "startDate": "10/07/2007",
      "address": "POLIGON 6, PARCEL·LA 499, S/N. ALCÚDIA, Mallorca",
      "longitude": 3.0578877734695356,
      "latitude": 39.83354859849108
    },
    {
      "name": "SON SIMÓ NOU",
      "location": "Alcúdia",
      "state": "Alta",
      "startDate": "11/05/2015",
      "address": "Polígon 7, PARCEL.LA 247/248. CTRA. PALMA-ALCUDIA KM. 43.6. 07400 ALCÚDIA, Mallorca",
      "longitude": 3.0587643484441087,
      "latitude": 39.81565540938234
    },
    {
      "name": "S´HORT DEN PEP DE BARCARES",
      "location": "Alcúdia",
      "state": "Alta",
      "startDate": "24/02/2015",
      "address": "Polígon 1, PARC 24, HORT SALAT. 07400 ALCÚDIA, Mallorca",
      "longitude": 3.1195182348977135,
      "latitude": 39.85950300865965
    },
    {
      "name": "CAN SEGUER",
      "location": "Alcúdia",
      "state": "Alta",
      "startDate": "02/06/2015",
      "address": "Polígon 6, PARCEL.LA 531. 07400 ALCÚDIA, Mallorca",
      "longitude": 3.060781855410655,
      "latitude": 39.83058866396091
    },
    {
      "name": "ES FERRERET",
      "location": "Alcúdia",
      "state": "Alta",
      "startDate": "27/05/2015",
      "address": "Carrer LLORENÇ RIBER, 5. 07400 ALCÚDIA, Mallorca",
      "longitude": 3.117800249899202,
      "latitude": 39.85943096432679
    },
    {
      "name": "TAURÓ 187",
      "location": "Alcúdia",
      "state": "Alta",
      "startDate": "06/08/2015",
      "address": "Carrer SA TOFONA, 187. 07400 ALCÚDIA, Mallorca",
      "longitude": 3.148224649442916,
      "latitude": 39.86324942505969
    },
    {
      "name": "TOFONA 186",
      "location": "Alcúdia",
      "state": "Alta",
      "startDate": "11/05/2015",
      "address": "Carrer TOFONA, 186. 07400 ALCÚDIA, Mallorca",
      "longitude": 3.148224649442916,
      "latitude": 39.86324942505969
    },
    {
      "name": "BONAIRE",
      "location": "Alcúdia",
      "state": "Alta",
      "startDate": "17/03/2015",
      "address": "Carrer ALFABAGUERA, 18. 07400 ALCÚDIA, Mallorca",
      "longitude": 3.1542400865442213,
      "latitude": 39.85947553558916
    },
    {
      "name": "ALCUDI",
      "location": "Alcúdia",
      "state": "Alta",
      "startDate": "01/06/2015",
      "address": "Carrer DALIES, 4. 07400 ALCÚDIA, Mallorca",
      "longitude": 3.117256841043736,
      "latitude": 39.8300507174501
    },
    {
      "name": "BAIX SON FE",
      "location": "Alcúdia",
      "state": "Alta",
      "startDate": "01/06/2015",
      "address": "Polígon 7 PARCEL·LA 211. 07400 ALCÚDIA, Mallorca",
      "longitude": 3.0627814421413837,
      "latitude": 39.82821614932038
    },
    {
      "name": "FIGUERAL GRAN",
      "location": "Alcúdia",
      "state": "Alta",
      "startDate": "27/05/2015",
      "address": "Polígon 5, PARCEL·LA 487,486, 414, 769. 07400 ALCÚDIA, Mallorca",
      "longitude": 3.1117279303301997,
      "latitude": 39.84238298366078
    },
    {
      "name": "MAGDALENA GOMILA MARIMON",
      "location": "Alcúdia",
      "state": "Alta",
      "startDate": "17/06/2015",
      "address": "Avinguda GRECIA, 4. 07400 ALCÚDIA, Mallorca",
      "longitude": 3.111339965472023,
      "latitude": 39.83423483620515
    },
    {
      "name": "SA SINIA DEN PEP DE BARCARES",
      "location": "Alcúdia",
      "state": "Alta",
      "startDate": "05/10/2015",
      "address": "Polígon 1, PARC 24, HORT SALAT, ANEXO, BARRERA DERECHA. 07400 ALCÚDIA, Mallorca",
      "longitude": 3.1195182348977135,
      "latitude": 39.85950300865965
    },
    {
      "name": "LA CASA DE CAN S´ILLOT",
      "location": "Alcúdia",
      "state": "Alta",
      "startDate": "04/11/2015",
      "address": "Carrer ILLOT, 3 pis BXS. 07400 ALCÚDIA, Mallorca",
      "longitude": 3.159842632988712,
      "latitude": 39.8385103483695
    },
    {
      "name": "VILLA GINESTA",
      "location": "Alcúdia",
      "state": "Alta",
      "startDate": "04/11/2015",
      "address": "Carrer GINESITA, 9. 07400 ALCÚDIA, Mallorca",
      "longitude": 3.114349760953134,
      "latitude": 39.827960089809
    },
    {
      "name": "BONACASA",
      "location": "Alcúdia",
      "state": "Alta",
      "startDate": "04/11/2015",
      "address": "Carrer BETA, 1. 07400 ALCÚDIA, Mallorca",
      "longitude": 3.119608858892301,
      "latitude": 39.86243780888633
    },
    {
      "name": "CA´N BOSCH",
      "location": "Alcúdia",
      "state": "Alta",
      "startDate": "04/11/2015",
      "address": "Polígon 639, 005, PARC.. 07400 ALCÚDIA, Mallorca",
      "longitude": 3.076082371746755,
      "latitude": 39.86277620813733
    },
    {
      "name": "CAN PASTERA",
      "location": "Alcúdia",
      "state": "Alta",
      "startDate": "02/12/2015",
      "address": "Polígon 7 PARCEL·LA 6. 07400 ALCÚDIA, Mallorca",
      "longitude": 3.090366333791869,
      "latitude": 39.841310011429954
    },
    {
      "name": "CA NA SIONA",
      "location": "Alcúdia",
      "state": "Alta",
      "startDate": "14/12/2015",
      "address": "Polígon 7 PARCEL·LA 34. 07400 ALCÚDIA, Mallorca",
      "longitude": 3.0802349125768016,
      "latitude": 39.83956410494783
    },
    {
      "name": "SA FIGUERA ROJA",
      "location": "Alcúdia",
      "state": "Alta",
      "startDate": "04/01/2015",
      "address": "Polígon  5, PARCELA 286. 07400 ALCÚDIA, Mallorca",
      "longitude": 3.080167597622081,
      "latitude": 39.84409305204781
    },
    {
      "name": "CASA MESTRAL",
      "location": "Alcúdia",
      "state": "Alta",
      "startDate": "04/01/2016",
      "address": "Avinguda CORRAL DEN BENNASSAR, 7. 07400 ALCÚDIA, Mallorca",
      "longitude": 3.1112379163527693,
      "latitude": 39.85859036314626
    },
    {
      "name": "CAN JORDI",
      "location": "Alcúdia",
      "state": "Alta",
      "startDate": "18/12/2015",
      "address": "MOLLET DE L´ALBUFERA, 4, 07400 ALCÚDIA (Mallorca), Illes Balears",
      "longitude": 3.1144440524343313,
      "latitude": 39.825625536497995
    },
    {
      "name": "VILLA BARCARÉS",
      "location": "Alcúdia",
      "state": "Alta",
      "startDate": "10/02/2016",
      "address": "Carrer ÀNCORES, 15. 07400 ALCÚDIA, Mallorca",
      "longitude": 3.133103594949871,
      "latitude": 39.86333473447058
    },
    {
      "name": "CASA PINA",
      "location": "Alcúdia",
      "state": "Alta",
      "startDate": "10/02/2016",
      "address": "Carrer DE LA TALONERA, 11. 07400 ALCÚDIA, Mallorca",
      "longitude": 3.145324833636419,
      "latitude": 39.86144316552216
    },
    {
      "name": "SALORT PETIT",
      "location": "Alcúdia",
      "state": "Alta",
      "startDate": "07/03/2016",
      "address": "Camí CORRAL D´EN BENNASSAR, 17. 07400 ALCÚDIA, Mallorca",
      "longitude": 3.1112379163527693,
      "latitude": 39.85859036314626
    },
    {
      "name": "CAMELIA",
      "location": "Alcúdia",
      "state": "Alta",
      "startDate": "07/03/2016",
      "address": "Carrer CAMELIA, 8. 07400 ALCÚDIA, Mallorca",
      "longitude": 3.156229953436056,
      "latitude": 39.86232258226761
    },
    {
      "name": "FINCA LES ROCASSES",
      "location": "Alcúdia",
      "state": "Alta",
      "startDate": "26/02/2016",
      "address": "Polígon 5, PARC 436. CAN SOLER. 07400 ALCÚDIA, Mallorca",
      "longitude": 3.0121250402579016,
      "latitude": 39.87577691631409
    },
    {
      "name": "LAS COMAS DE DALT",
      "location": "Alcúdia",
      "state": "Alta",
      "startDate": "10/03/2016",
      "address": "Polígon 5, PARCEL·LA 158. 07400 ALCÚDIA, Mallorca",
      "longitude": 3.0925422989211544,
      "latitude": 39.84521955668673
    },
    {
      "name": "MARISA I",
      "location": "Alcúdia",
      "state": "Alta",
      "startDate": "10/03/2016",
      "address": "Carrer REMS, 13. 07400 ALCÚDIA, Mallorca",
      "longitude": 3.1172089604262627,
      "latitude": 39.86152329936974
    },
    {
      "name": "MARISA II",
      "location": "Alcúdia",
      "state": "Alta",
      "startDate": "10/03/2016",
      "address": "Carrer REMS, 13 lletra A. 07400 ALCÚDIA, Mallorca",
      "longitude": 3.1172089604262627,
      "latitude": 39.86152329936974
    },
    {
      "name": "CAN XENET",
      "location": "Alcúdia",
      "state": "Alta",
      "startDate": "10/07/2007",
      "address": "POLIGON 6 PARCEL·LA 8, S/N. 07400 ALCÚDIA, Mallorca",
      "longitude": 3.063940348255756,
      "latitude": 39.84927966944478
    },
    {
      "name": "VILLA TINTORETTO",
      "location": "Alcúdia",
      "state": "Alta",
      "startDate": "18/11/2016",
      "address": "Carrer TINTORETTO, 8. 07400 ALCÚDIA, Mallorca",
      "longitude": 3.1045562863680294,
      "latitude": 39.8557688388019
    },
    {
      "name": "BOREAL",
      "location": "Alcúdia",
      "state": "Alta",
      "startDate": "24/11/2016",
      "address": "Carrer TOUS, 8. 07400 ALCÚDIA, Mallorca",
      "longitude": 3.1288267139740533,
      "latitude": 39.865189638916156
    },
    {
      "name": "LES CARTERES",
      "location": "Alcúdia",
      "state": "Alta",
      "startDate": "11/07/2007",
      "address": "POLIGON 5 PARCEL·LA 491, 07400 ALCÚDIA (Mallorca), Illes Balears",
      "longitude": 3.0717291404711866,
      "latitude": 39.85296895853917
    },
    {
      "name": "CAN TORRETES",
      "location": "Alcúdia",
      "state": "Alta",
      "startDate": "11/07/2007",
      "address": "POLIGON 4 PARCEL·LA 278 I 283, 07400 ALCÚDIA (Mallorca), Illes Balears",
      "longitude": 3.1038595886007663,
      "latitude": 39.84652535264263
    },
    {
      "name": "MAR I",
      "location": "Alcúdia",
      "state": "Alta",
      "startDate": "30/11/2016",
      "address": "Carrer REMS, 13 lletra B. 07400 ALCÚDIA, Mallorca",
      "longitude": 3.1156687186772305,
      "latitude": 39.86064415547366
    },
    {
      "name": "MAR II",
      "location": "Alcúdia",
      "state": "Alta",
      "startDate": "30/11/2016",
      "address": "Carrer REMS, 9. 07400 ALCÚDIA, Mallorca",
      "longitude": 3.1161783864922654,
      "latitude": 39.86087652533774
    },
    {
      "name": "CA NA BLANCA",
      "location": "Alcúdia",
      "state": "Alta",
      "startDate": "28/11/2016",
      "address": "Carrer SANT JAUME, 29. 07400 ALCÚDIA, Mallorca",
      "longitude": 3.120896200440003,
      "latitude": 39.851986278118815
    },
    {
      "name": "CA NA BAUSSANA",
      "location": "Alcúdia",
      "state": "Alta",
      "startDate": "10/07/2007",
      "address": "POLIGON 5 PARCEL·LA 267, S/N. 07400 ALCÚDIA, Mallorca",
      "longitude": 3.0863628156546494,
      "latitude": 39.845984769021705
    },
    {
      "name": "CAN CORIOS",
      "location": "Alcúdia",
      "state": "Alta",
      "startDate": "23/03/2007",
      "address": "Polígon 7, PARCEL·LA 4-5. 07400 ALCÚDIA, Mallorca",
      "longitude": 3.090161157764962,
      "latitude": 39.84252328383629
    },
    {
      "name": "NOSTRA CASETA",
      "location": "Alcúdia",
      "state": "Alta",
      "startDate": "13/12/2016",
      "address": "Passeig MARE DE DÉU DE LA VICTORIA, 38. 07400 ALCÚDIA, Mallorca",
      "longitude": 3.12378772842957,
      "latitude": 39.851733448105236
    },
    {
      "name": "SES ONES",
      "location": "Alcúdia",
      "state": "Alta",
      "startDate": "16/12/2016",
      "address": "Passeig VORAMAR, 1. 07400 ALCÚDIA, Mallorca",
      "longitude": 3.113655736497889,
      "latitude": 39.861066512075446
    },
    {
      "name": "CA NA LLORETA",
      "location": "Alcúdia",
      "state": "Alta",
      "startDate": "10/07/2007",
      "address": "Carrer MONTEVIDEO, 19. 07400 ALCÚDIA, Mallorca",
      "longitude": 3.108051111782551,
      "latitude": 39.81534623739805
    },
    {
      "name": "CA LA LLUNA",
      "location": "Alcúdia",
      "state": "Alta",
      "startDate": "13/03/2017",
      "address": "Carrer XARXES, 15. 07400 ALCÚDIA, Mallorca",
      "longitude": 3.1165974785723134,
      "latitude": 39.862972233428216
    },
    {
      "name": "COSME",
      "location": "Alcúdia",
      "state": "Alta",
      "startDate": "10/07/2007",
      "address": "Camí BRESSALS - POLIGON 5 PARCEL·LA 214, S/N. 07400 ALCÚDIA, Mallorca",
      "longitude": 3.089733437168917,
      "latitude": 39.852185710834945
    },
    {
      "name": "PARADISE",
      "location": "Alcúdia",
      "state": "Alta",
      "startDate": "14/03/2017",
      "address": "Carrer ROURE, 23. 07400 ALCÚDIA, Mallorca",
      "longitude": 3.152702269766601,
      "latitude": 39.8602380646655
    },
    {
      "name": "BLAU MARI",
      "location": "Alcúdia",
      "state": "Alta",
      "startDate": "14/03/2017",
      "address": "Carrer ANCORES, 12. 07400 ALCÚDIA, Mallorca",
      "longitude": 3.1210767459131468,
      "latitude": 39.861259487290226
    },
    {
      "name": "VILLA MANRESA",
      "location": "Alcúdia",
      "state": "Alta",
      "startDate": "05/04/2017",
      "address": "Carrer NIXE, 3. 07400 ALCÚDIA, Mallorca",
      "longitude": 3.127555203833626,
      "latitude": 39.86466141546916
    },
    {
      "name": "SA ROTA - CAN BECA",
      "location": "Alcúdia",
      "state": "Alta",
      "startDate": "10/07/2007",
      "address": "POLÍGON 3, PARCEL·LA 214, S/N. 07400 ALCÚDIA, Mallorca",
      "longitude": 3.15618942341944,
      "latitude": 39.84144576617495
    },
    {
      "name": "CA NA JOANA BARCARES",
      "location": "Alcúdia",
      "state": "Alta",
      "startDate": "11/07/2007",
      "address": "Carrer LLORENÇ RIBER, 8. 07400 ALCÚDIA, Mallorca",
      "longitude": 3.1182251584211644,
      "latitude": 39.85964921285364
    },
    {
      "name": "JOAN POLIT",
      "location": "Alcúdia",
      "state": "Alta",
      "startDate": "11/07/2007",
      "address": "POLIGON 2 PARCEL·LA 82, 07400 ALCÚDIA (Mallorca), Illes Balears",
      "longitude": 3.1337824120085798,
      "latitude": 39.859190825137865
    },
    {
      "name": "CA NA SUREDA",
      "location": "Alcúdia",
      "state": "Alta",
      "startDate": "12/03/2007",
      "address": "POLIGON 5, PARCEL·LA 246 ALCÚDIA (Mallorca), Illes Balears",
      "longitude": 3.087616174571648,
      "latitude": 39.84751436467875
    },
    {
      "name": "CAPUTXINA 9",
      "location": "Alcúdia",
      "state": "Alta",
      "startDate": "16/03/2015",
      "address": "Carrer CAPUTXINA, 9. 07400 ALCÚDIA, Mallorca",
      "longitude": 3.141816884632483,
      "latitude": 39.86110680773177
    },
    {
      "name": "CASES NOVES",
      "location": "Alcúdia",
      "state": "Alta",
      "startDate": "12/07/2007",
      "address": "POLÍGON 6, PARCEL·LA 358, S/N. 07400 ALCÚDIA, Mallorca",
      "longitude": 3.1224910127586467,
      "latitude": 39.85270513698358
    },
    {
      "name": "CA NA FRANCISCA",
      "location": "Alcúdia",
      "state": "Alta",
      "startDate": "12/07/2007",
      "address": "POLÍGON 5, PARCEL·LA 395, S/N. 07400 ALCÚDIA, Mallorca",
      "longitude": 3.076631244461041,
      "latitude": 39.848009674174264
    },
    {
      "name": "ROCKNROLLA",
      "location": "Alcúdia",
      "state": "Alta",
      "startDate": "12/06/2015",
      "address": "Carrer ANCORES, 9. 07400 ALCÚDIA, Mallorca",
      "longitude": 3.120391443007763,
      "latitude": 39.86094911805499
    },
    {
      "name": "VILLA BAHINOS",
      "location": "Alcúdia",
      "state": "Alta",
      "startDate": "17/06/2015",
      "address": "Plaça DIE BALEAREN, 4. 07400 ALCÚDIA, Mallorca",
      "longitude": 3.128292832630862,
      "latitude": 39.865184846239515
    },
    {
      "name": "VILLA MAR",
      "location": "Alcúdia",
      "state": "Alta",
      "startDate": "05/08/2015",
      "address": "Carrer ANCORES, 8. 07400 ALCÚDIA, Mallorca",
      "longitude": 3.1213265797223544,
      "latitude": 39.86137994514201
    },
    {
      "name": "CA NA GERRERA",
      "location": "Alcúdia",
      "state": "Alta",
      "startDate": "12/07/2007",
      "address": "POLÍGON 6, PARCEL·LA 224, 07400 ALCÚDIA (Mallorca), Illes Balears",
      "longitude": 3.060115373897041,
      "latitude": 39.84089741862701
    },
    {
      "name": "TEMASTUL",
      "location": "Alcúdia",
      "state": "Alta",
      "startDate": "06/11/2015",
      "address": "Camí DE SA TALAIA, 8. 07400 ALCÚDIA, Mallorca",
      "longitude": 3.183024826657747,
      "latitude": 39.86258667067962
    },
    {
      "name": "VILLA LAVANDA",
      "location": "Alcúdia",
      "state": "Alta",
      "startDate": "23/12/2015",
      "address": "Carrer CAN VAUMA, 19. 07400 ALCÚDIA, Mallorca",
      "longitude": 3.1092518815333197,
      "latitude": 39.81681359990208
    },
    {
      "name": "CA´N GOSP",
      "location": "Alcúdia",
      "state": "Alta",
      "startDate": "14/06/2007",
      "address": "POLIGON 5, PARCEL·LA 369, S/N. ALCÚDIA, Mallorca",
      "longitude": 3.080813718873508,
      "latitude": 39.85075228408805
    },
    {
      "name": "CAN CURT - CUART",
      "location": "Alcúdia",
      "state": "Alta",
      "startDate": "12/07/2007",
      "address": "Carretera MAL PAS, POLÍGON 3, PARCEL·LA 97, S/N. 07400 ALCÚDIA, Mallorca",
      "longitude": 3.132426896337141,
      "latitude": 39.85290248348329
    },
    {
      "name": "CORRO SANT JAUME",
      "location": "Alcúdia",
      "state": "Alta",
      "startDate": "28/01/2016",
      "address": "Carrer SANT JAUME, 22. 07400 ALCÚDIA, Mallorca",
      "longitude": 3.1206832815516727,
      "latitude": 39.85196771931117
    },
    {
      "name": "CAN FRANCK",
      "location": "Alcúdia",
      "state": "Alta",
      "startDate": "16/02/2016",
      "address": "Carrer PERE QUART, 2. 07400 ALCÚDIA, Mallorca",
      "longitude": 3.1201335660684153,
      "latitude": 39.86114294127462
    },
    {
      "name": "ELS AUBELLONS",
      "location": "Alcúdia",
      "state": "Alta",
      "startDate": "13/07/2007",
      "address": "POLÍGON 5, PARCEL·LA 227, 07400 ALCÚDIA (Mallorca), Illes Balears",
      "longitude": 3.1117279303301997,
      "latitude": 39.84238298366078
    },
    {
      "name": "SANT JAUME",
      "location": "Alcúdia",
      "state": "Alta",
      "startDate": "05/12/2018",
      "address": "Carrer SANT JAUME, 17. 07400 ALCÚDIA, Mallorca",
      "longitude": 3.1210299742938257,
      "latitude": 39.85205362014904
    },
    {
      "name": "CA N´ANTÒNIA",
      "location": "Alcúdia",
      "state": "Alta",
      "startDate": "31/08/2018",
      "address": "DE N´ARQUÈS, 9 lletra B. -, -",
      "longitude": 3.1226752473801516,
      "latitude": 39.85353702759215
    },
    {
      "name": "LORENZO",
      "location": "Alcúdia",
      "state": "Alta",
      "startDate": "24/07/2007",
      "address": "Polígon 5, PARCEL·LA 764. 07400 ALCÚDIA, Mallorca",
      "longitude": 3.079589843006047,
      "latitude": 39.857566243614656
    },
    {
      "name": "CAN SOLER",
      "location": "Alcúdia",
      "state": "Alta",
      "startDate": "29/07/2007",
      "address": "POLIGON 5, PARCEL·LA 541, S/N. ALCÚDIA, Mallorca",
      "longitude": 3.070262492739814,
      "latitude": 39.858463719861895
    },
    {
      "name": "SON FE  D´ALT",
      "location": "Alcúdia",
      "state": "Alta",
      "startDate": "23/07/2007",
      "address": "POLÍGON 7, PARCEL·LA 88, 07400 ALCÚDIA (Mallorca), Illes Balears",
      "longitude": 3.0721803097039264,
      "latitude": 39.832251697511765
    },
    {
      "name": "C´AN PEP",
      "location": "Alcúdia",
      "state": "Alta",
      "startDate": "23/06/2016",
      "address": "Carrer VIOLER, 5. 07400 ALCÚDIA, Mallorca",
      "longitude": 3.144292633524135,
      "latitude": 39.864315522811694
    },
    {
      "name": "LA NATURA",
      "location": "Alcúdia",
      "state": "Alta",
      "startDate": "24/07/2007",
      "address": "POLIGON 6 PARCEL3LA 642, 07400 ALCÚDIA (Mallorca), Illes Balears",
      "longitude": 3.0564858171292246,
      "latitude": 39.84666377968812
    },
    {
      "name": "ME CHABOT",
      "location": "Alcúdia",
      "state": "Alta",
      "startDate": "07/07/2016",
      "address": "Carrer XARXES, 10. 07400 ALCÚDIA, Mallorca",
      "longitude": 3.116611008990338,
      "latitude": 39.86329518464096
    },
    {
      "name": "VILLA MARILEN",
      "location": "Alcúdia",
      "state": "Alta",
      "startDate": "25/07/2016",
      "address": "Plaça ROQUES, 7. 07400 ALCÚDIA, Mallorca",
      "longitude": 3.1432505332901064,
      "latitude": 39.862602800456834
    },
    {
      "name": "FORTALESA",
      "location": "Alcúdia",
      "state": "Alta",
      "startDate": "28/07/2016",
      "address": "VORAMAR, 63. -, -",
      "longitude": 3.108442466121382,
      "latitude": 39.85791936752696
    },
    {
      "name": "JAUME BARRETAS",
      "location": "Alcúdia",
      "state": "Alta",
      "startDate": "25/07/2007",
      "address": "POLÍGON 5, PARCEL·LA 543, S/N. 07400 ALCÚDIA, Mallorca",
      "longitude": 3.071231912946645,
      "latitude": 39.857672409018676
    },
    {
      "name": "VILLA POLLENTIA",
      "location": "Alcúdia",
      "state": "Alta",
      "startDate": "26/07/2007",
      "address": "POLIGON 1, PARCEL·LA 41-B ALCÚDIA (Mallorca), Illes Balears",
      "longitude": 3.117698923667869,
      "latitude": 39.85598717638088
    },
    {
      "name": "CAN SOLER",
      "location": "Alcúdia",
      "state": "Alta",
      "startDate": "05/08/2016",
      "address": "Camí ALCANADA, 24. 07400 ALCÚDIA, Mallorca",
      "longitude": 3.148767022084989,
      "latitude": 39.83629989607069
    },
    {
      "name": "CAN CERDA",
      "location": "Alcúdia",
      "state": "Alta",
      "startDate": "26/07/2007",
      "address": "POLIGON 5, PARCEL·LA 25, 07400 ALCÚDIA (Mallorca), Illes Balears",
      "longitude": 3.108092228151684,
      "latitude": 39.85274525746971
    },